,Iris ID,Risk ID 1,Risk ID 2,Risk ID 3,Assessment ID,Ledger,Property Name,Address,City,State,County,ZIP,Market,Submarket,# Buildings,Year Built,Construction Type,Units,LATITUDE,LONGITUDE,Rentable Sqft,Primary Use,Number of beds,n Floors,Seismic Risk 2022,Seismic Hazard 2022,Wildfire Risk 2022,Wildfire Hazard 2022,Wildfire Risk 2050,Wildfire Hazard 2050,Flood Risk 2022,Flood Hazard 2022,Flood Risk 2030,Flood Hazard 2030,Flood Risk 2050,Flood Hazard 2050,Extrem Heat Risk 2022,Extrem Heat Hazard 2022,Extreme Heat Risk 2050,Extreme Heat Hazard 2050
0,9bf9fa08-95e3-4eea-b2da-3d111bfdf6c4,3ba7dc08-496f-41b9-91b6-841be3d4aa64,e7afce3b-9ae5-4582-b780-68041dc18b6b,c53f2b6a-8a8c-47ed-a032-f8166980bcf2,,19038,929 Mass Apartments,929 Massachusetts Avenue,Cambridge,MA,Middlesex,2139,Boston,MA-Cambridge,2,1975,High-Rise,127,42.368602,-71.109089,73342.0,PRIMARY_USE_HEALTHCARE,161,18.0,Very Low,Low,Very Low,Moderate,Very Low,Moderate,Low,Moderate,Low,Moderate,Low,Moderate,Very Low,Moderately High,Very Low,Moderately High
1,4a6a606c-4e8e-4354-a1d1-9a456f872683,75051b9f-8f6e-49de-aa86-4e727742042d,6379cdd2-6363-475c-9d18-729cb4da02eb,08c64807-1c4c-469c-a1eb-e9a828c705de,,19079,Hudson Point,131 Dudley Street,Jersey City,NJ,Hudson,7302,New York - Manhattan,Hudson Waterfront,1,2003,High-Rise,182,40.7126881,-74.03992679,181132.0,PRIMARY_USE_RESIDENTIAL,279,6.0,Very Low,Low,Very Low,Moderate,Very Low,Moderate,Very Low,Low,Very Low,Moderate,Very Low,Low,Very Low,Moderately High,Very Low,Moderately High
2,f7834cab-fec0-465d-938c-21ee04cfca70,f36ec12d-aff8-402b-a81d-b51fd797ffa2,e853bbc4-5d89-4d34-84e2-85f7fd680f32,7cf45d71-91f7-41b1-bd32-07b753225fe6,,19080,The Pier,1 Harborside Place,Jersey City,NJ,Hudson,7311,New York - Manhattan,Hudson Waterfront,1,2003,Mid-Rise,297,40.71932286,-74.03132915,301167.0,PRIMARY_USE_RESIDENTIAL,427,8.0,Very Low,Low,Very Low,Moderate,Very Low,Moderate,Medium,Very High,Medium,Very High,Medium,Very High,Very Low,Moderately High,Very Low,Moderately High
3,7a3feddc-b4c5-4334-91b5-6779d59e407a,632561f3-9e1e-4f7a-8fd9-3d64cb9747b6,32a2ed0d-d4d6-4283-9182-b4a3542ca1fb,7f60a8a2-97ce-4bd6-a261-6f12c088e662,,19082,The Landings at Port Imperial,Four Avenue At Port Imperial,West New York,NJ,Hudson County,7093,New York - Manhattan,Hudson Waterfront,4,1999,Garden,276,40.78530325,-74.00206705,267313.0,PRIMARY_USE_RETAIL,440,4.0,Very Low,Low,Very Low,Moderate,Very Low,Moderate,Very Low,Moderate,Very Low,High,Very Low,High,Very Low,Moderately High,Very Low,Moderately High
4,85985c08-d9d7-44d0-a257-da6c1839e81c,bc448d8f-3926-49ee-9f3a-3f10d5523266,d46a662f-2dbe-4cd7-a9f2-29213ba4d1ed,bba59247-1c2a-4f2a-81e4-83baf8a07e1d,,19083,Rosecliff,790 Willard St,Quincy,MA,Norfolk,2169,Boston,128 South,3,1990,Garden,156,42.229554,-71.030012,144273.0,PRIMARY_USE_RESIDENTIAL,237,4.0,Very Low,Low,Very Low,Moderate,Very Low,Moderate,Very Low,Low,Very Low,Low,Very Low,Low,Very Low,Moderately High,Very Low,Moderately High
5,666396ca-5fce-44d1-ace3-ac8bb8522b10,63d6dcb4-806d-4938-9461-e682d4bd2547,b4665b3e-ab83-4347-831b-eefdd28729fc,73c9a7c3-78d3-4046-b9bf-592aef0208da,,19094,Portside Towers,155 Washington Street,Jersey City,NJ,Hudson,7302,New York - Manhattan,Hudson Waterfront,2,1992,High-Rise,527,40.71248319,-74.03827389,563267.0,PRIMARY_USE_SCHOOL,842,25.0,Very Low,Low,Very Low,Moderate,Very Low,Moderate,Medium,Very High,Medium,Very High,Medium,Very High,Very Low,Moderately High,Very Low,Moderately High
6,af4bace8-91e5-493e-b374-94fdc2c11add,60098f26-87b7-4212-8916-9346ec8cb63b,baea68c9-88f4-4212-aded-bc828fd7bbfd,2d3463f2-d98e-4595-b782-50fedafa4973,,19096,Lincoln Heights,175 Centre Street,Quincy,MA,Norfolk,2169,Boston,128 South,17,1991,Garden,336,42.23941611,-71.01699829,266568.0,PRIMARY_USE_RESIDENTIAL,456,3.0,Very Low,Low,Very Low,Moderate,Very Low,Moderate,Low,Moderate,Low,Moderate,Low,Moderate,Very Low,Moderately High,Very Low,Moderately High
7,56e0033d-94de-4d79-891b-49a71b9b1306,30ade8e9-3e76-460d-99a4-979797999910,d8af9375-4e5b-4b6c-a906-0413531f8c11,c43ac530-5c5e-4311-8709-765c98846a0e,,19137,The Towers at Longfellow,72 Staniford Street,Boston,MA,Suffolk,2114,Boston,City of Boston,2,1975,High-Rise,710,42.362846,-71.063872,703428.0,PRIMARY_USE_HEALTHCARE,946,39.0,Very Low,Low,Very Low,Moderate,Very Low,Moderate,Very Low,Low,Very Low,Low,Very Low,Low,Very Low,Moderately High,Very Low,Moderately High
8,27c3b0da-fbac-4cda-a1c1-8f90cf9e2b52,e1c41b85-b938-4d21-84bc-25838eec9534,89a9e992-87f7-43a2-9908-fcaf734f4ff1,76427a09-8b51-46ab-b6dd-b10a84995e6c,,19145,Liberty Park,1 Matthew Lane,Braintree,MA,Norfolk,2184,Boston,128 South,30,2000,Garden,202,42.194388,-70.979712,197832.0,PRIMARY_USE_RESIDENTIAL,330,3.0,Very Low,Low,Very Low,Moderate,Very Low,Moderate,Very Low,Low,Very Low,Low,Very Low,Low,Very Low,Moderately High,Very Low,Moderately High
9,8232f477-1fb3-4ed5-9c88-235043bfdbfd,aa4a6462-7d7f-415e-99bc-4584cf6ab9c0,b167e924-41fb-4e61-9b94-6a4187cf67c5,a19f3d28-4096-4a6e-8cde-9d4b7a4e1940,,19153,Hudson Crossing,400 West 37th Street,New York,NY,New York,10018,New York - Manhattan,Manhattan-Midtown/West,1,2003,High-Rise,259,40.755303,-73.9949,144445.0,PRIMARY_USE_RETAIL,293,14.0,Very Low,Low,Very Low,Moderate,Very Low,Moderate,Very Low,Low,Very Low,Low,Very Low,Low,Very Low,Moderately High,Very Low,Moderately High
10,e3bb20fe-cda2-4a5d-a8d9-4a280e1aaaab,8a99371a-98dc-4721-88ea-ce64f892b8b0,301c96a1-1dd8-4172-af6d-0570db2ab345,a7ba08f4-f6aa-42c3-896b-c5f41b75c67f,,19158,71 Broadway,71 Broadway,New York,NY,New York,10006,New York - Manhattan,Manhattan-Financial,1,1897,High-Rise,238,40.70742535,-74.01195288,185905.0,PRIMARY_USE_FOOD_SERVICE,299,23.0,Very Low,Low,Very Low,Moderate,Very Low,Moderate,Very Low,Low,Very Low,Low,Very Low,Low,Very Low,Moderately High,Very Low,Moderately High
11,06054941-b9b9-4588-bb99-f1ee7e664443,5e2d46e4-0a13-4b86-b109-cc968ea962df,7080d75c-bc2d-4aff-852a-3d4310706b5a,6ad458af-4952-4a96-8480-4197887c3c76,,19163,180 Riverside Boulevard,180 Riverside Boulevard,New York,NY,New York,10069,New York - Manhattan,Manhattan-Upper West Side,1,1998,High-Rise,516,40.778449,-73.988156,391226.0,PRIMARY_USE_SCHOOL,594,45.0,Very Low,Low,Very Low,Moderate,Very Low,Moderate,Medium,Very High,Medium,Very High,Medium,Very High,Very Low,Moderately High,Very Low,Moderately High
12,ce49e016-b933-4d04-8f31-6da6b9e59dc3,97571d40-5446-40de-9315-d32e52ef4bed,108f69b2-59be-4bba-8f97-5c716ffe56fc,97692aac-2c5e-4c97-983c-0c806b363e82,,19176,The Prime,1415 North Taft Street,Arlington,VA,Arlington,22201,Washington DC,VA-Arlington-RB Corridor,1,2002,High-Rise,281,38.89037595,-77.08140297,265293.0,PRIMARY_USE_RESIDENTIAL,390,15.0,Very Low,Low,Very Low,Moderate,Very Low,Moderate,Very Low,Low,Very Low,Low,Very Low,Low,Very Low,Moderately High,Very Low,High
13,3f681af0-4690-4373-8b8a-a01c8d486a7c,15ea8387-a46e-4b94-9aff-589d00bf6df3,bba4898a-5e4d-4b9d-9a17-a889225e83d2,e9a73a21-71a8-4b53-b2bc-2c7d4820a562,,19178,Ten23,500 W. 23rd Street,New York,NY,New York,10011,New York - Manhattan,Manhattan-Chelsea,1,2011,High-Rise,111,40.74768257,-74.00421173,76880.0,PRIMARY_USE_RETAIL,137,13.0,Very Low,Low,Very Low,Moderate,Very Low,Moderate,Low-Medium,High,Low-Medium,High,Low-Medium,High,Very Low,Moderately High,Very Low,Moderately High
14,5bffe035-70ad-45e5-90f2-3e6942c17415,e382544c-205d-4e25-ad64-f3c8e70dfe33,76bf1a9f-fbec-4a2f-8558-d2f40c82c8e2,952e53f3-72f5-434e-bd0d-efd15989522b,,19179,Parc 77,50 West 77th Street,New York,NY,New York,10024,New York - Manhattan,Manhattan-Upper West Side,1,1903,High-Rise,137,40.780464,-73.975879,73643.0,PRIMARY_USE_OFFICE,138,14.0,Very Low,Low,Low,Moderately High,Low,Moderately High,Very Low,Low,Very Low,Low,Very Low,Low,Very Low,Moderately High,Very Low,Moderately High
15,e4f07b97-dc47-4f13-b3a5-8ae1e8ab9a1c,f6eeae53-bd3b-47c9-a512-7ecc7150bfa0,c2eadfcd-b5fe-4f26-9be3-0eed545e9a49,6ec85f64-0003-4fe3-9688-e32bdeea59a1,,19180,Parc Cameron,41 West 86th Street,New York,NY,New York,10024,New York - Manhattan,Manhattan-Upper West Side,1,1927,High-Rise,166,40.786056,-73.97119,78374.0,PRIMARY_USE_FOOD_SERVICE,173,17.0,Very Low,Low,Low,Moderately High,Low,Moderately High,Very Low,Low,Very Low,Low,Very Low,Low,Very Low,Moderately High,Very Low,Moderately High
16,3a271b9d-fefe-4b35-ad4a-6c649df59d18,5088bbea-99b3-40de-8023-c9a1a40d2469,533d712e-f2d2-44c5-b738-2af5c2db8db4,23f43c82-be72-4f31-9933-dfe425213ab8,,19183,Parc Coliseum,228 West 71st Street,New York,NY,New York,10023,New York - Manhattan,Manhattan-Upper West Side,2,1910,High-Rise,177,40.778508,-73.983488,94190.0,PRIMARY_USE_HEALTHCARE,191,16.0,Very Low,Low,Very Low,Moderate,Very Low,Moderate,Very Low,Low,Very Low,Low,Very Low,Low,Very Low,Moderately High,Very Low,Moderately High
17,c2278963-232a-4034-9a16-8590afc4d387,2a509424-5b63-40f5-87a2-0f3409e375a7,795ff113-7d16-483d-b389-82d96ec50678,f4224fde-6d3c-406c-b654-5ca4101ee9bd,,19206,Sheffield Court,701 North Wayne Street,Arlington,VA,Arlington,22201,Washington DC,VA-Arlington-RB Corridor,37,1986,Garden,597,38.88207266,-77.08600831,394256.0,PRIMARY_USE_RESIDENTIAL,645,4.0,Very Low,Low,Very Low,Moderate,Very Low,Moderate,Very Low,Low,Very Low,Low,Very Low,Low,Very Low,Moderately High,Very Low,High
18,5903ced6-c7d1-4c8e-9372-08711a553374,6db49d09-0d98-4398-ac65-8aa3c9d68207,9a32594c-eccc-447d-8a7d-e697c09b6877,7bcd1ed8-7896-41bd-83cf-a11344113c7a,,19216,The Reserve at Fairfax Corner,11727 Fairfax Woods Way,Fairfax,VA,Fairfax,22030,Washington DC,VA-Fairfax,50,2001,Garden,652,38.85807926,-77.35362829,616722.0,PRIMARY_USE_RESIDENTIAL,1044,4.0,Very Low,Low,Very Low,Moderate,Very Low,Moderate,Very Low,Low,Very Low,Low,Very Low,Low,Very Low,Moderately High,Very Low,High
19,81572d51-bb41-42d0-9e96-fcd6a7deb234,f5ca94c7-77d1-4c32-a154-14b37b0c7be9,77e23aa9-21e8-4ca6-9db7-765a667e5b3c,d6de5ad4-23c7-4520-a959-54d4271f409d,,19217,The Reserve at Eisenhower,5000 Eisenhower Avenue,Alexandria,VA,Alexandria City,22304,Washington DC,VA-Alexandria,5,2002,Mid-Rise,226,38.80325817,-77.11920786,227897.0,PRIMARY_USE_RESIDENTIAL,356,5.0,Very Low,Low,Very Low,Moderate,Very Low,Moderate,Low,Moderate,Low,Moderate,Low,Moderate,Very Low,Moderately High,Very Low,High
20,3a75fb5f-12c4-4481-baea-b1131dae62d9,ed0c7c1e-2107-41fa-8979-9994c8b6681a,c5f8c0fb-b258-4155-ba31-a01a78d0ae01,65995176-7093-42f0-bbd6-e69404fdcb61,,19221,1210 Mass,1210 Massachusetts Avenue,Washington,DC,District of Columbia,20005,Washington DC,DC-Central,1,2004,High-Rise,144,38.904376,-77.028222,130479.0,PRIMARY_USE_RETAIL,213,13.0,Very Low,Low,Very Low,Moderate,Very Low,Moderate,Very Low,Low,Very Low,Low,Very Low,Low,Very Low,Moderately High,Very Low,High
21,1719981e-4128-43fe-bfef-f5df8c888463,11f91d2e-2543-4669-a323-e34bf5ca2fc1,aceceb27-4677-484d-b22a-ca6c1fbb6232,2181604c-12a0-41f4-932c-9ba20c194a88,,19223,2400 M,2400 M Street NW,Washington,DC,District of Columbia,20037,Washington DC,DC-Central,1,2006,Mid-Rise,359,38.90529368,-77.05143916,330088.0,PRIMARY_USE_FOOD_SERVICE,439,10.0,Very Low,Low,Very Low,Moderate,Very Low,Moderate,Very Low,Low,Very Low,Low,Very Low,Low,Very Low,Moderately High,Very Low,High
22,c853de90-16ec-4e78-a9b9-48b68a08e85c,173a8438-31e6-406a-af5d-eb4cbefb676d,3338c13b-bfc3-4c55-a3f8-5920e0800a83,fa776042-bf4f-4cbe-aec0-ddde40f345ee,,19224,Reserve at Potomac Yard,3700 Richmond Hwy,Alexandria,VA,Alexandria City,22305,Washington DC,VA-Alexandria,2,2002,Mid-Rise,588,38.83794802,-77.05205388,514532.0,PRIMARY_USE_RESIDENTIAL,824,5.0,Very Low,Low,Very Low,Moderate,Very Low,Moderate,Very Low,Moderate,Very Low,Moderate,Very Low,Moderate,Very Low,Moderately High,Very Low,High
23,f27ddd7a-8c1f-4e63-bd73-8322247bec33,9371c186-e760-4a0e-b74c-a7c662a263b4,aac2f70c-f626-4226-9c27-d0cc89fee2e4,960c226b-710c-49af-b34d-15aaaf527ebf,,19225,Carlyle Mill,2201 Mill Road,Alexandria,VA,Alexandria City,22314,Washington DC,VA-Alexandria,4,2002,Mid-Rise,317,38.799884,-77.06741,303201.0,PRIMARY_USE_RESIDENTIAL,496,4.0,Very Low,Low,Very Low,Moderate,Very Low,Moderate,Medium,Very High,Medium,Very High,Medium,Very High,Very Low,Moderately High,Very Low,High
24,378d0cfc-4a13-4c95-878f-60c43423ccd4,93418cfc-9d7c-4d41-ad71-1c4467c162d4,f22c6bf9-2f9f-46de-9254-e596b4728fd5,97c90465-25bc-4ecb-a118-9496919f52ac,,19226,Reserve at Clarendon Centre,3000 N. Washington Blvd.,Arlington,VA,Arlington,22201,Washington DC,VA-Arlington-RB Corridor,1,2003,High-Rise,252,38.88497728,-77.0937795,216340.0,PRIMARY_USE_FOOD_SERVICE,346,11.0,Very Low,Low,Very Low,Moderate,Very Low,Moderate,Very Low,Low,Very Low,Low,Very Low,Low,Very Low,Moderately High,Very Low,High
25,24bd762f-0bf1-4f13-b684-ece60cfd303c,74a4527c-bae1-4463-9c1f-095c2b567f37,14b7637f-a491-434b-8bbf-bac97ffe7f70,f250e116-5ba3-4113-b352-15d0fec06c11,,19231,Church Corner,10 Magazine Street,Cambridge,MA,Middlesex,2139,Boston,MA-Cambridge,1,1987,Mid-Rise,85,42.36452836,-71.10502183,81632.0,PRIMARY_USE_RESIDENTIAL,182,10.0,Very Low,Low,Very Low,Moderate,Very Low,Moderate,Very Low,Low,Very Low,Low,Very Low,Low,Very Low,Moderately High,Very Low,Moderately High
26,affd88df-fa4c-4c8f-a3d8-cca2574ab644,d1ea5d70-3401-4b97-b1f9-1474136abc26,d7321368-7353-4808-96b2-e936d9b83f8b,2a5dcd94-bd10-44ab-a75f-efe2c02c55d4,,19234,The Veridian,1133 East-West Highway,Silver Spring,MD,Montgomery,20910,Washington DC,MD-Silver Spring,2,2009,High-Rise,457,38.9899,-77.028575,395471.0,PRIMARY_USE_FOOD_SERVICE,621,15.0,Very Low,Low,Very Low,Moderate,Very Low,Moderate,Very Low,Low,Very Low,Low,Very Low,Low,Very Low,Moderately High,Very Low,High
27,3c168080-0987-417f-af77-1da0f416111e,7bb77b6c-c5e9-480c-afa1-08c207fb2d36,7803071a-8ec9-43e2-bb9c-33c671ae4253,f60b082e-859a-42d5-a152-0d40c47b54e7,,19235,Highlands at South Plainfield,1300  Cook Lane,South Plainfield,NJ,Middlesex,7080,New York - Manhattan,NY-Suburbs,12,2000,Garden,252,40.55646459,-74.41752697,230034.0,PRIMARY_USE_RESIDENTIAL,387,3.0,Very Low,Low,Very Low,Moderate,Very Low,Moderate,Very Low,Low,Very Low,Low,Very Low,Low,Very Low,Moderately High,Very Low,High
28,05a047fc-f84f-4969-85c4-090b1622bd5d,d189ef99-0dab-43ca-8b0a-bb91ddf4ef58,c8fb40f0-2db7-4ba0-bc54-be8e1bec29fa,791b3bd6-3c7e-4c50-9951-bbec24403bf8,,19236,600 Washington,600 Washington Street,New York City,NY,New York,10014,New York - Manhattan,Manhattan-Chelsea,1,2004,Mid-Rise,135,40.73045,-74.009087,74089.0,PRIMARY_USE_RETAIL,149,7.0,Very Low,Low,Very Low,Moderate,Very Low,Moderate,Very Low,Low,Very Low,Moderate,Very Low,Moderate,Very Low,Moderately High,Very Low,Moderately High
29,72c35acf-9dfb-41aa-bf6e-06822d6a6c5f,705faccc-2094-408a-975e-2bfb9d06fa7c,f76d4d24-b0d6-4761-b30a-2773c45c1e0f,71b9bf18-4898-4e25-81ec-b41fd44174b2,,19239,Heritage at Stone Ridge,2 Littles Brook Court,Burlington,MA,Middlesex,1803,Boston,128 North,5,2005,Garden,180,42.48896655,-71.18694305,186514.0,PRIMARY_USE_RESIDENTIAL,292,3.0,Very Low,Low,Very Low,Moderate,Very Low,Moderate,Low-Medium,High,Low-Medium,High,Low-Medium,High,Very Low,Moderately High,Very Low,Moderately High
30,6b2f7295-72af-4351-9eb9-48b2b4caa4f5,93f1b0a0-9d82-43bb-a3b6-f9f02ebf1f64,742dfcf7-8dee-4bf3-816c-113d803bc8c9,7dbc869f-87b0-41cb-a3d9-bac8cb7f3c02,,19241,2201 Pershing,2201 N Pershing Drive,Arlington,VA,Arlington,22201,Washington DC,VA-Arlington-RB Corridor,2,2012,High-Rise,188,38.881071,-77.084407,180079.0,PRIMARY_USE_SCHOOL,295,5.0,Very Low,Low,Very Low,Moderate,Very Low,Moderate,Very Low,Low,Very Low,Low,Very Low,Low,Very Low,Moderately High,Very Low,High
31,77b467a2-57d2-47fc-9020-358418d42982,d81d072e-326f-4df2-a7d2-b132936e3e4b,7a3ba7e4-a79b-4cf0-8667-2971079c48d8,ab37ebcd-5d55-4949-a44d-27ae692efe71,,19242,70 Greene,70 Greene Street,Jersey City,NJ,Hudson,7302,New York - Manhattan,Hudson Waterfront,1,2010,High-Rise,480,40.714778,-74.036058,384771.0,PRIMARY_USE_FOOD_SERVICE,610,51.0,Very Low,Low,Very Low,Moderate,Very Low,Moderate,Very Low,Low,Very Low,Moderate,Very Low,Low,Very Low,Moderately High,Very Low,Moderately High
32,44ee3c4a-cecd-4bb7-b820-a061dd3bb7ce,e72fd135-b697-449e-8539-c181afca9dcf,5dd586ba-9b20-4cc0-b4b9-04ffec00f102,6750f5ab-65bb-4fa8-9517-91e97b6642f3,,19244,Mosaic at Metro,6210 Belcrest Road,West Hyattsville,MD,Prince George,20782,Washington DC,MD-Prince George,7,2008,Mid-Rise,260,38.964096,-76.952298,257047.0,PRIMARY_USE_RESIDENTIAL,417,5.0,Very Low,Low,Very Low,Moderate,Very Low,Moderate,Very Low,Low,Very Low,Low,Very Low,Low,Very Low,Moderately High,Very Low,High
33,a1073208-2704-4cc8-a383-2f30931d49ad,4a3451a8-0556-40d7-8017-736581df69ac,5521fd61-d1bf-4c98-854f-3caa9b4701bf,c986a8c9-f6f1-47bc-ada1-5fb1b0080493,,19257,Longview Place,70 Hope Avenue,Waltham,MA,Middlesex,2453,Boston,128 West,3,2004,High-Rise,348,42.36913533,-71.24837384,354956.0,PRIMARY_USE_RESIDENTIAL,549,7.0,Very Low,Low,Very Low,Moderate,Very Low,Moderate,Very Low,Low,Very Low,Low,Very Low,Low,Very Low,Moderately High,Very Low,Moderately High
34,1bd53432-5984-4179-8040-439c8da65caf,a6a821dd-8007-45c6-b2f7-e58f7299dfb2,54b1b49f-7173-4495-a69b-d3ba91d77a83,5f601208-a4ef-42c7-be40-5a14ed7ae003,,19260,Liberty Tower,818 N. Quincy Street,Arlington,VA,Arlington,22203,Washington DC,VA-Arlington-RB Corridor,1,2008,High-Rise,235,38.880331,-77.107594,220812.0,PRIMARY_USE_FOOD_SERVICE,338,21.0,Very Low,Low,Very Low,Moderate,Very Low,Moderate,Very Low,Moderate,Low,High,Low,High,Very Low,Moderately High,Very Low,High
35,72becef6-7c57-4d62-af2e-4497508d02c7,1c4491f2-10ca-4374-80cc-fbdecdd9f7be,3bc5dee5-e2dc-44b1-a9d2-b5b4f6eab0c5,f65e9c37-7332-4282-8c3c-fa4c1e12f602,,19264,1111 Belle Pre,1111 Belle Pre Way,Alexandria,VA,Alexandria,22314,Washington DC,VA-Alexandria,2,2013,Mid & High Rises,360,38.81373,-77.049876,295165.0,PRIMARY_USE_FOOD_SERVICE,485,7.0,Very Low,Low,Very Low,Moderate,Very Low,Moderate,Very Low,Low,Very Low,Low,Very Low,Low,Very Low,Moderately High,Very Low,High
36,79e1956d-d8a9-4138-be83-8a9d3f632f07,fab4c13a-1f70-4c51-ae57-91a436153576,9ba21152-4ceb-451c-831e-3abe40690a2e,4cf8d4eb-25b9-43e9-8984-cdda4c68a2ae,,19276,777 6th Avenue,777 Sixth Avenue,New York,NY,New York,10001,New York - Manhattan,Manhattan-Chelsea,1,2002,High-Rise,294,40.744981,-73.991288,199571.0,PRIMARY_USE_RETAIL,325,32.0,Very Low,Low,Very Low,Moderate,Very Low,Moderate,Very Low,Low,Very Low,Low,Very Low,Low,Very Low,Moderately High,Very Low,Moderately High
37,67ff2317-2b97-46bf-b507-6a835ddf56ac,3969b31f-95be-4213-8940-6fcce21c0776,81c4447b-7ede-4904-b7bd-24a3a9873248,743d6f99-e479-4224-9147-b7c4e50f9c11,,19278,Longacre House,305 West 50th Street,New York,NY,New York,10019,New York - Manhattan,Manhattan-Midtown/West,1,1998,High-Rise,293,40.762352,-73.986258,206944.0,PRIMARY_USE_RETAIL,317,26.0,Very Low,Low,Very Low,Moderate,Very Low,Moderate,Very Low,Low,Very Low,Low,Very Low,Low,Very Low,Moderately High,Very Low,Moderately High
38,d05049a8-f427-4089-96b1-92e0b113f7d7,635ce8b6-6efc-4aaa-9f45-01eb27717ee7,9e22824a-3e48-4511-9f36-1f6fe9854571,a0b9fa0c-3c63-42a8-b155-a67555fea8b1,,19288,425 Mass,425 Massachusetts Ave NW,Washington,DC,,20001,Washington DC,DC-Central,2,2009,High-Rise,559,38.900411,-77.016821,485693.0,PRIMARY_USE_RESIDENTIAL,645,19.0,Very Low,Low,Very Low,Moderate,Very Low,Moderate,Very Low,Moderate,Very Low,Moderate,Very Low,Moderate,Very Low,Moderately High,Very Low,High
39,b8918838-0674-4419-b0a0-6e52ff15aa51,89cefa7e-6b59-41c3-b013-ecedf442ac32,29102128-140d-497c-8a74-d3e7281107a0,1707c27f-6c54-4f3c-81db-c22b8033f49a,,19306,1401 Joyce on Pentagon Row,1401 South Joyce Street,Arlington,VA,Arlington,22202,Washington DC,VA-South Arlington,1,2004,High-Rise,326,38.861441,-77.063089,283583.0,PRIMARY_USE_RESIDENTIAL,451,18.0,Very Low,Low,Very Low,Moderate,Very Low,Moderate,Low,High,Low-Medium,Very High,Low-Medium,Very High,Very Low,Moderately High,Very Low,High
40,709e5e76-3b19-4145-821b-f8d3502ba449,5d0fbb57-72d6-4d31-83b0-ea0725e9d5e2,7020b385-0a9e-4e6c-b1e9-4ab1a8918ab7,20e72ecf-13bd-41ac-a2a1-841981f83090,,19337,Third Square,285 Third Street,Cambridge,MA,Middlesex,2142,Boston,MA-Cambridge,1,2008,Mid-Rise,292,42.364727,-71.083302,262857.0,PRIMARY_USE_RESIDENTIAL,418,10.0,Very Low,Low,Very Low,Moderate,Very Low,Moderate,Very Low,High,Very Low,Very High,Low,Very High,Very Low,Moderately High,Very Low,Moderately High
41,a849136d-335a-4e26-abd4-ba71ea33afc6,3548b716-cefd-40cc-a29b-9eae482d76e3,1dd0d7c1-5530-45a6-8145-706f66b7f572,620bf60c-14b8-4f58-971f-2c5279459034,,19369,The Brooklyner,111 Lawrence Street,Brooklyn,NY,Kings County,11201,New York - Manhattan,Brooklyn,1,2010,High-Rise,490,40.692632,-73.986236,314648.0,PRIMARY_USE_RESIDENTIAL,564,52.0,Very Low,Low,Very Low,Moderate,Very Low,Moderate,Very Low,Low,Very Low,Low,Very Low,Low,Very Low,Moderately High,Very Low,Moderately High
42,cecd5a03-d10a-4de1-a6f8-bf0d14bf540f,39cc1d5e-0db5-4b1d-8464-7dd955388ce7,440a0bbe-4261-4b4e-84ee-71806e761b82,6b75ce3e-2744-4f27-96bc-558e5e3c7f9b,,19372,175 Kent,175 Kent Ave,Brooklyn,NY,Kings,11211,New York - Manhattan,Brooklyn,1,2011,Mid-Rise,113,40.718208,-73.963652,86178.0,PRIMARY_USE_SCHOOL,144,8.0,Very Low,Low,Very Low,Moderate,Very Low,Moderate,Very Low,Low,Very Low,Low,Very Low,Low,Very Low,Moderately High,Very Low,Moderately High
43,1968dc6e-40c5-4e0f-ae1b-60b4e5bc6fb1,7082be74-a34e-47a2-a5f3-0d2b16e4dc80,11bb57f2-ea73-40eb-a4b3-924bb8fe20c4,5f11c483-23d5-44ef-8141-8d46ea98ba28,,19373,Rosecliff II,790 Willard Street,Quincy,MA,Norfolk,2169,Boston,128 South,2,2005,Garden,130,42.229554,-71.030012,135450.0,PRIMARY_USE_RESIDENTIAL,200,1.0,Very Low,Low,Very Low,Moderate,Very Low,Moderate,Very Low,Low,Very Low,Low,Very Low,Low,Very Low,Moderately High,Very Low,Moderately High
44,9c0cdf6f-19ef-4d9a-8980-8c8c18a9d78f,f5ade837-66f8-4899-bce4-69b4978a0e8a,afddbcd6-78d4-4e94-b932-5bfc70672158,46046bc1-4883-48fc-aa7a-4a80b83cf0f4,,19447,303 Third Street South,303 Third Street,Cambridge,MA,Middlesex,2142,Boston,MA-Cambridge,1,2009,Mid-Rise,179,42.364727,-71.083302,204044.0,PRIMARY_USE_RESIDENTIAL,292,10.0,Very Low,Low,Very Low,Moderate,Very Low,Moderate,Low,High,Low,Very High,Low,Very High,Very Low,Moderately High,Very Low,Moderately High
45,4150617c-e2d5-4664-9e2d-3fc4931f42f6,f7402914-16e6-4b77-98b1-25fc033314d6,e721939a-bef9-40ed-8b1b-c48f40c7b4d2,2b90090c-43bb-45ca-b854-821728da68b1,,19469,Parc East,240 East 27th Street,New York City,NY,New York,10016,New York - Manhattan,Manhattan-Gramercy,1,1977,High-Rise,324,40.740588,-73.979595,289790.0,PRIMARY_USE_RETAIL,498,27.0,Very Low,Low,Very Low,Moderate,Very Low,Moderate,Very Low,Low,Very Low,Low,Very Low,Low,Very Low,Moderately High,Very Low,Moderately High
46,aca57417-4094-4a03-9105-8288728fd866,ec752834-bb38-4762-bc61-ba224e3281e8,cd1212ff-68da-413b-bb87-06fda4326ea6,b5316702-5ce9-4ca1-b6c0-6b2c58b671df,,19531,Alcott Apartments,35 Lomasney Way,Boston,MA,Suffolk,2114,Boston,City of Boston,1,2021,High-Rise,470,42.364901,-71.064716,423849.0,PRIMARY_USE_RESIDENTIAL,672,50.0,Very Low,Low,Very Low,Moderate,Very Low,Moderate,Low,High,Low,High,Low,High,Very Low,Moderately High,Very Low,Moderately High
47,47d065b5-5867-4749-8498-4f6bceb42a19,04da7ae9-64d5-46fc-a151-dd825e9ef6ed,60812314-21d7-4c67-be40-618b945f5ddf,e7566685-35a0-40e3-a786-30b736a6c840,,24012,Vantage Hollywood,1710 North Fuller Avenue,Los Angeles,CA,Los Angeles,90046,Los Angeles,Hollywood/Mid Wilshire,1,1987,Mid-Rise,298,34.102149,-118.348364,164056.0,PRIMARY_USE_RESIDENTIAL,324,6.0,Very Low,Very High,Low-Medium,Moderately High,Low-Medium,Moderately High,Very Low,Low,Very Low,Low,Very Low,Low,Very Low,High,Very Low,High
48,a4c62749-774b-4444-a9c8-70acd91b1331,e89e9234-88b1-45a5-893a-bc68f959185b,56886366-4d3d-42f6-8acc-1f252fcec709,c5846c96-a9e0-4129-ab39-ec1e93d746f9,,24013,C on Pico,12301 W Pico Blvd,Los Angeles,CA,Los Angeles,90064,Los Angeles,West Los Angeles,1,2014,Mid-Rise,94,34.028469,-118.45282,64961.0,PRIMARY_USE_RESIDENTIAL,142,7.0,Low-Medium,Very High,Very Low,Moderate,Very Low,Moderate,Medium-High,Very High,Medium,Very High,Medium-High,Very High,Very Low,Moderately High,Very Low,Moderately High
49,85f0c4a1-851c-4116-9c4a-fa704940b2ee,ad90e3f5-0fc8-47c8-ba40-ee166c015a1c,f9a00f27-4086-4740-88c9-ee669a92ea5a,ffb58c1b-7216-4e74-8196-297ca55bbd52,,24016,Springline,3220 California Ave SW,Seattle,WA,King,98116,Seattle,West Seattle,3,2016,Mid-Rise,136,47.574237,-122.386308,104855.0,PRIMARY_USE_HEALTHCARE,205,7.0,Low-Medium,High,Very Low,Moderate,Very Low,Moderate,Very Low,Low,Very Low,Low,Very Low,Low,Very Low,Moderate,Very Low,Moderately High
50,ca8c7aa4-3230-46d5-919f-d9e81ed15cb8,13ef17fd-51a2-4381-add3-7dada46ef72c,6785fc69-7f56-492c-b100-2344b68062fd,1f62cce5-1a54-4882-996a-1838d0bd8398,,24018,Girard,50 Malden St,Boston,MA,Suffolk,2118,Boston,City of Boston,1,2016,High-Rise,160,42.339996,-71.068353,137418.0,PRIMARY_USE_RETAIL,253,9.0,Very Low,Low,Very Low,Moderate,Very Low,Moderate,Low-Medium,High,Low-Medium,High,Low-Medium,High,Very Low,Moderately High,Very Low,Moderately High
51,a23200d4-df95-4b23-802a-e72b89f9b786,68a86e9f-1f00-40d9-a7b1-858eaddc9f6a,aab0c725-28ef-456e-b2ce-0a956d3bb72c,131017cd-3232-4404-a8bd-52298653cad3,,24020,Venn at Main,10333 NE 1st Street,Bellevue,WA,King,98004,Seattle,Bellevue/Redmond,2,2016,Mid-Rise,350,47.611028,-122.202283,265397.0,PRIMARY_USE_FOOD_SERVICE,426,11.0,Very Low,High,Very Low,Moderate,Very Low,Moderate,Very Low,Low,Very Low,Moderate,Very Low,Low,Very Low,Moderate,Very Low,Moderately High
52,18873c7f-34b1-4f76-a9f4-b08d2ca3f201,d32aeafe-923a-481b-ae82-6fd483cfb803,28b04af3-777e-4d52-941c-334564c7e481,5890d404-9d91-4dad-8bb9-3642a944607d,,24022,Radius Koreatown,680 S Berendo St,Los Angeles,CA,Los Angeles,90005,Los Angeles,Hollywood/Mid Wilshire,2,2014,Mid-Rise,301,34.060644,-118.293768,184789.0,PRIMARY_USE_RESIDENTIAL,314,10.0,Very Low,Very High,Very Low,Moderate,Very Low,Moderate,Very Low,Low,Very Low,Low,Very Low,Low,Very Low,High,Very Low,High
53,8bce697f-0aed-447a-9ee4-7ae9e166c393,2960243a-c4b2-4556-9cbd-ee0b25dceee5,7f982baf-4da7-48bc-a36f-d8d77be066d9,98323eff-7b48-4726-9978-c23489ad0ff4,,24023,Chloe on Union,1408 East Union Street,Seattle,WA,King,98122,Seattle,Capital Hill/First Hill,1,2010,Mid-Rise,117,47.61398696,-122.3137891,80783.0,PRIMARY_USE_FOOD_SERVICE,140,8.0,Low-Medium,High,Very Low,Moderate,Very Low,Moderate,Very Low,Low,Very Low,Low,Very Low,Low,Very Low,Moderate,Very Low,Moderately High
54,911abde4-8fae-48e0-9ee7-897086665833,14490c69-968d-462f-812f-cf5d6bcd0f3a,e841592e-b9f7-49cd-bcff-a2b644104e33,645b085c-e56f-4021-9e8c-166360a65cdb,,24027,The Rivington,1130 Grand Street,Hoboken,NJ,Hudson,7030,New York - Manhattan,Hudson Waterfront,4,1999,Mid-Rise,240,40.751396,-74.032473,240385.0,PRIMARY_USE_RETAIL,480,6.0,Very Low,Low,Very Low,Moderate,Very Low,Moderate,Very Low,Low,Very Low,Moderate,Very Low,Moderate,Very Low,Moderately High,Very Low,Moderately High
55,930fddef-d934-4caf-a087-bdd30c37096a,6d120714-2149-459e-b491-6080e09e00ee,5c82b2a6-4f91-4c7c-8166-31cea4725956,9d573983-c35d-4a74-8f4a-9bc8ec1091fc,,24030,Troy Boston,55 Traveler Street,Boston,MA,Suffolk,2118,Boston,City of Boston,2,2015,High-Rise,378,42.343645,-71.062687,238127.0,PRIMARY_USE_RETAIL,462,21.0,Very Low,Low,Very Low,Moderate,Very Low,Moderate,Very Low,Moderate,Very Low,Moderate,Very Low,Moderate,Very Low,Moderately High,Very Low,Moderately High
56,1ee1510b-6106-4643-8231-cdbc53d060a4,77bb00e6-c537-4d7d-9d31-9a0a786cd5a5,ea9bf290-4280-4c25-a125-a25a8f17de83,7721015e-8a06-40d8-80bf-7c5320447717,,24032,Radius Uptown,1935 N. Logan Street,Denver,CO,Denver,80203,Denver,CBD/Cherry Creek,1,2017,High-Rise,372,39.746906,-104.982607,286650.0,PRIMARY_USE_RESIDENTIAL,454,13.0,Very Low,Low,Very Low,Moderate,Very Low,Moderate,Very Low,Moderate,Very Low,Moderate,Very Low,Moderate,Very Low,Moderately High,Very Low,Moderately High
57,09fa58c2-9b78-4cb5-bac3-d2bc5da9c455,1dcc8ac1-a67b-4b99-ac8d-23fa3bd8e94c,12ffd93b-80fe-4005-ba27-a30e325e6e68,b0c0f1b5-781c-4c6f-bdf4-b3fdb5b00aad,,24033,Skyhouse Denver,1776 Broadway,Denver,CO,Denver,80202,Denver,CBD/Cherry Creek,1,2017,High-Rise,354,39.744559,-104.987395,279005.0,PRIMARY_USE_RESIDENTIAL,448,27.0,Very Low,Low,Very Low,Moderate,Very Low,Moderate,Very Low,Low,Very Low,Low,Very Low,Low,Very Low,Moderately High,Very Low,Moderately High
58,dcd07c4b-10af-4d1b-b628-b14415856031,d6d4ee9a-72c3-466e-aa51-7ed6d94236a7,06ccda63-c2fa-4e73-8119-7aa1ce0f4d74,5dee81b4-e20f-47c2-ae56-fcab551c139e,,24039,Eviva on Cherokee,1250 N Cherokee St,Denver,CO,Denver,80204,Denver,CBD/Cherry Creek,1,2017,High-Rise,274,39.736212,-104.991294,224317.0,PRIMARY_USE_RESIDENTIAL,342,18.0,Very Low,Low,Very Low,Moderate,Very Low,Moderate,Very Low,Moderate,Very Low,Moderate,Very Low,Moderate,Very Low,Moderately High,Very Low,Moderately High
59,3c932547-31c6-4cd9-b48f-3f43a177c282,9b575e87-dc02-4340-9462-0bf397bc5b57,67b57704-498c-42ea-8d49-9e4458b1661a,a0cfcea7-10c0-486a-8983-3a30bb795de8,,24040,Madox,198 Van Vorst St.,Jersey City,NJ,Hudson,7302,New York - Manhattan,Hudson Waterfront,1,2013,Mid-Rise,131,40.714054,-74.040937,120751.0,PRIMARY_USE_HEALTHCARE,201,8.0,Very Low,Low,Very Low,Moderate,Very Low,Moderate,Low-Medium,Very High,Low-Medium,Very High,Medium,Very High,Very Low,Moderately High,Very Low,Moderately High
60,3ae3810c-72af-412b-b89b-3b7227d00da4,8ba4a299-b5e2-46df-bc7f-5c4f0aaa97e7,eaa1db3a-0c6a-435d-b5fc-e303b6591f68,7e39abc1-9dfc-49c1-b8f2-6ce185bc9571,,24043,Mark on 8th,285 8th Ave N,Seattle,WA,King,98109,Seattle,South Lake Union,1,2016,Mid-Rise,174,47.6205,-122.341456,115549.0,PRIMARY_USE_FOOD_SERVICE,196,10.0,Low-Medium,High,Very Low,Moderate,Very Low,Moderate,Very Low,Low,Very Low,Low,Very Low,Low,Very Low,Moderate,Very Low,Moderately High
61,f5e18f45-47f8-472c-adb5-acdd754e674f,4ba9931c-aaff-4c6f-bd33-aadd392137c5,ef4c3465-73c5-4eed-b0e2-2b86845b1c6f,1b46623f-0a50-47ff-ad62-f83525904a06,,24045,Axis at Shady Grove,9305 Corporate Blvd,Rockville,MD,Montgomery,20850,Washington DC,MD-Rockville/Gaithersburg,2,2016,Mid-Rise,366,39.107946,-77.192273,342022.0,PRIMARY_USE_RESIDENTIAL,538,5.0,Very Low,Low,Very Low,Moderate,Very Low,Moderate,Very Low,Low,Very Low,Low,Very Low,Low,Very Low,Moderately High,Very Low,High
62,cb6134b5-493b-4f52-9d4f-58248f966af2,696610bf-f141-4d9d-8937-8758e31c47ec,9275e8cc-cc5e-4571-8fe4-4c57ef1d3219,8f44bee0-8cd3-49cb-a47b-5becf2ea93d8,,24047,Venue at the Promenade,6200 Castlegate Dr,Castle Rock,CO,Douglas,80108,Denver,Castle Rock,17,2017,Garden,312,39.422346,-104.882694,311428.0,PRIMARY_USE_RESIDENTIAL,488,3.0,Very Low,Low,Low-Medium,Moderately High,Low-Medium,Moderately High,Very Low,Low,Very Low,Low,Very Low,Low,Very Low,Moderately High,Very Low,Moderately High
63,f5ba07e5-e3dc-402d-9e72-ceb09d60762b,4c83cb68-51c0-46c4-8152-a01185516bd4,5be7a39e-23ce-4daf-930c-a0a3ec0f6fac,07e11668-b2d1-431e-9a5c-95283271a2d1,,24048,The Brodie,2311 Park Centre Dr,Westminster,CO,Adams,80234,Denver,Northwest Denver,8,2017,Mid-Rise,312,39.917818,-105.01461,298937.0,PRIMARY_USE_FOOD_SERVICE,469,5.0,Very Low,Low,Very Low,Moderate,Very Low,Moderate,Very Low,Low,Very Low,Low,Very Low,Low,Very Low,Moderately High,Very Low,Moderately High
64,7aa1a9d4-933d-4d88-8c4c-d1d2705d8d23,0b309f43-3dba-43e8-a742-2c6371c1a722,7ec42a87-2d49-4ef3-9663-0cd8b68819d4,fd7ad638-5f5d-4c62-826e-bc3c96b60a83,,24049,STOA,222 S Main St,Los Angeles,CA,Los Angeles,90012,Los Angeles,Downtown CBD,1,2017,Mid-Rise,237,34.050228,-118.244661,178856.0,PRIMARY_USE_SCHOOL,279,10.0,Very Low,Very High,Very Low,Moderate,Very Low,Moderate,Very Low,Low,Very Low,Low,Very Low,Low,Very Low,High,Very Low,High
65,ac81591f-b7a7-41e3-b8b8-51f6152961a7,616f7db7-6d5e-4ed7-bd52-cd7fed4255fe,754eb4ad-149a-49cf-9b65-54b89b159bfb,3ee48e0b-5c5a-43d6-bffb-45a1a64e29fb,,24051,Next on Sixth,620 S Virgil Ave,Los Angeles,CA,Los Angeles,90005,Los Angeles,Hollywood/Mid Wilshire,1,2018,Mid-Rise,398,34.06331,-118.286375,262513.0,PRIMARY_USE_RETAIL,447,9.0,Very Low,Very High,Very Low,Moderate,Very Low,Moderate,Low-Medium,High,Low-Medium,High,Low-Medium,High,Very Low,High,Very Low,High
66,5ea7ebfa-d824-4744-b508-abca5bf7b6ff,b7255e27-134c-465c-8671-6a6c6ce5283f,e3e42f4d-727c-4816-bdef-450bb00e115d,5e584728-64af-4d19-9ab1-84f1dfcd49e9,,24053,The Lex,5560 Lexington Ave,San Jose,CA,Santa Clara,95123,San Francisco Bay Area,SF-South Bay,1,2017,Mid-Rise,387,37.252236,-121.799144,337454.0,PRIMARY_USE_RESIDENTIAL,561,5.0,Medium,Very High,Very Low,Moderate,Very Low,Moderate,Very Low,Moderate,Very Low,Moderate,Very Low,Moderate,Very Low,Moderately High,Very Low,High
67,3d963c61-850f-4538-bd53-42fde82a6f82,24606d9a-93c7-4c40-b5d6-dd47abeeb1f9,054e293c-292c-48a3-92ef-a59511e7566a,0fb6711c-5a5a-4e86-a6e4-8d6bfd2939d7,,24055,Aero Apartments,201 W Atlantic Avenue,Alameda,CA,Alameda,94501,San Francisco Bay Area,SF-East Bay,4,2021,Mid-Rise,204,37.780408,-122.29618,139904.0,PRIMARY_USE_RESIDENTIAL,244,4.0,Low-Medium,Very High,Very Low,Moderate,Very Low,Moderate,Very Low,Low,Very Low,Low,Very Low,Low,Very Low,Moderately High,Very Low,Moderately High
68,dff0ca0f-ee7e-4045-a201-9608cc2f46b9,b77f329b-0356-4d5d-83fc-a0a3907f6ec1,0e1347c5-5c52-4fb0-a79e-6a379996be7e,e31967bc-03b3-4123-bffe-f5a9165147a4,,24060,The Huxley,1355 El Camino Real,Redwood City,CA,San Mateo,94063,San Francisco Bay Area,SF-Peninsula,1,2018,Mid-Rise,137,37.482264,-122.229172,117547.0,PRIMARY_USE_RESIDENTIAL,171,8.0,Very Low,Very High,Very Low,Moderate,Very Low,Moderate,Low,High,Low,High,Low,High,Very Low,Moderately High,Very Low,Moderately High
69,7d8bd255-431f-42f6-8462-14fae30c7b01,d85ded6e-422a-4419-91d0-57181722bba7,7a851100-8e86-4c38-bbf0-f121158dc1e8,540a2246-7f5c-47a9-ae0b-f181c0e67117,,24069,Lane,10720 5th Ave NE,Seattle,WA,King,98125,Seattle,North Seattle,2,2019,Mid-Rise,217,47.707698,-122.322775,144116.0,PRIMARY_USE_RETAIL,250,7.0,Very Low,High,Very Low,Moderate,Very Low,Moderate,Very Low,Low,Very Low,Low,Very Low,Low,Very Low,Moderate,Very Low,Moderate
70,253e3949-6503-452e-bdea-eac9bd5da0b2,2206d728-0c71-4272-81f8-d1467226cecd,b0b8e226-8daa-4562-88e4-48cb26a23f9c,4a21f480-1da2-4170-81ac-cbf89641b638,,24071,The Dalton,1225 First St,Alexandria,VA,Fairfax,22314,Washington DC,VA-Alexandria,1,2018,Mid-Rise,270,38.816434,-77.050816,209749.0,PRIMARY_USE_FOOD_SERVICE,363,17.0,Very Low,Low,Very Low,Moderate,Very Low,Moderate,Very Low,Low,Very Low,Low,Very Low,Low,Very Low,Moderately High,Very Low,High
71,5edde13c-5b82-4859-9056-0b6928a94f3b,14364ec5-d224-4135-8b5c-bb705fa2f104,f3274ab5-224f-423f-99e2-33049e831e66,3f30e89a-9cd4-4150-8bf2-aa8ec3ead60c,,24078,Notch,13800 Newcastle Golf Club Rd,Newcastle,WA,King,98059,Seattle,Bellevue/Redmond,1,2019,Mid-Rise,158,47.540721,-122.154255,105288.0,PRIMARY_USE_RESIDENTIAL,187,5.0,Low,High,Very Low,Moderate,Very Low,Moderate,Very Low,Low,Very Low,Low,Very Low,Low,Very Low,Moderate,Very Low,Moderately High
72,65fd5def-f583-46a9-bad3-73ad75a143a1,c0502625-29f4-4c42-bde7-9cb19a2546e4,d63402b9-16e1-4a9d-94c5-ea0317b93c5e,5988968b-fc2a-48f2-ae9b-f65f7519630b,,24083,Circa Fitzsimons,11700 E 26th Ave,Denver,CO,Denver,80238,Denver,Northeast Denver,11,2020,Garden,280,39.75500012,-104.8510655,261014.0,PRIMARY_USE_RESIDENTIAL,400,4.0,Very Low,Low,Very Low,Moderate,Very Low,Moderate,Very Low,Low,Very Low,Low,Very Low,Low,Very Low,Moderately High,Very Low,High
73,ab7db3df-a2b3-4aa3-a9f8-d648dee8e45d,32c75b31-3b65-4239-b980-6e1946b7af38,447339d3-44d9-4e8a-95d1-ed8790e8f168,c02b5cdf-8985-4658-b4e8-f080f1f2e8e8,,24086,Radiant Fairfax Ridge,3887 Fairfax Ridge Road,Fairfax,VA,Fairfax,22030,Washington DC,VA-Fairfax,2,2016,Mid-Rise,213,38.86034705,-77.33592725,195719.0,PRIMARY_USE_RESIDENTIAL,346,5.0,Very Low,Low,Very Low,Moderate,Very Low,Moderate,Very Low,Low,Very Low,Low,Very Low,Low,Very Low,Moderately High,Very Low,High
74,4b5e5b80-3cd6-4af5-a477-18c865526466,0f96cc2f-7c5a-4e4e-a5d6-b1bbc5227b93,244a4498-df44-4bd9-93d9-e5ce42849e0b,c3f42adc-7c61-4ce3-8498-2d24bb17ac3e,,24087,Skyhouse South,100 6th St NE,Atlanta,GA,,30308,Atlanta,Midtown,1,2014,High-Rise,320,33.77802758,-84.38296238,,PRIMARY_USE_RESIDENTIAL,424,25.0,Very Low,Low,Very Low,Moderate,Very Low,Moderate,Not Assessed,Low,Not Assessed,Low,Not Assessed,Low,Very Low,Moderately High,Very Low,Moderately High
75,31deb18d-8239-4ce4-9fb5-f7636f811ba2,1b1f6965-539a-4e77-97dd-053e3426f526,5ce8e1b8-5c45-4255-95e9-99f33dab68ed,f261ad0a-cad9-4deb-a120-61517e85d737,,24090,The Reserve at Burlington,20 Corporate Drive,Burlington,MA,Middlesex,1803,Boston,128 North,1,2019,Mid-Rise,270,42.49530456,-71.19112029,250444.0,PRIMARY_USE_RESIDENTIAL,404,7.0,Very Low,Low,Very Low,Moderate,Very Low,Moderate,Low,High,Low,High,Low,High,Very Low,Moderately High,Very Low,Moderately High
76,dc294ffe-1c45-4313-967f-2bafb21d71f4,17002ffd-be0f-4fe0-a6a5-cb0c86526700,b0ff4c61-b7f3-47a9-82ab-3e8bc0c1f427,97bf476c-64d7-4853-a764-7ef3b2827d2d,,24091,Flora,5406 Middle Fiskville Road,Austin,TX,Travis,78751,Austin,Central Austin,1,2019,Mid-Rise,194,30.31685139,-97.71467987,122704.0,PRIMARY_USE_RESIDENTIAL,210,6.0,Very Low,Low,Very Low,Moderate,Very Low,Moderate,Very Low,Low,Very Low,Low,Very Low,Low,Very Low,High,Very Low,High
77,d366b7f5-88ff-4123-bc94-5f2bb9760179,c6570613-1c69-4eee-86ee-b567798ae686,a8511495-969f-4853-b2a7-a819367f336e,c0339117-da21-41ba-a80e-6a5529a38546,,24092,St Johns West,601 W St. Johns Ave,Austin,TX,Travis,78752,Austin,Central Austin,1,2020,Mid-Rise,297,30.33797055,-97.7147356,193622.0,PRIMARY_USE_RESIDENTIAL,338,6.0,Very Low,Low,Very Low,Moderate,Very Low,Moderate,Very Low,Low,Very Low,Low,Very Low,Low,Very Low,High,Very Low,High
78,eb96f4e6-e565-4c7e-8632-0239f368fad8,be3c4742-a8b0-4b76-aaa8-619a35e7553d,1298f954-f97f-4eee-8427-810ad49dbad8,30942500-1ab8-4766-90f8-7cbc389145ee,,24096,Zephyr on the Park,8020 161st Ave NE,Redmond,WA,King,98052,Seattle,Bellevue/Redmond,1,2021,Mid-Rise,193,47.67515316,-122.1250705,143669.0,PRIMARY_USE_FOOD_SERVICE,227,10.0,Very Low,High,Very Low,Moderate,Very Low,Moderate,Low,High,Low,High,Low,High,Very Low,Moderate,Very Low,Moderate
79,b4f7ce2e-6f85-4de2-8f4c-8c05d49a0530,07aafed5-bdfa-431a-a407-bba88bc9dcc5,2c4a3d7e-b7cc-481e-b6d2-dff5e5dedf33,b0ec8293-bd29-4e2e-bd5c-81e9cb09db8d,,24098,Kilby,8455 Grace Street,Frisco,TX,Collin,75034,Dallas/Ft. Worth,TX-DFW-Far North Dallas,1,2020,Mid-Rise,258,33.14832714,-96.8360526,227975.0,PRIMARY_USE_RESIDENTIAL,349,4.0,Very Low,Low,Low,Moderately High,Low,Moderately High,Very Low,Low,Very Low,Low,Very Low,Low,Very Low,High,Very Low,High
80,316f30ed-7156-4e1f-849f-3469f961ef5b,ede5b235-c794-47ff-ac16-fcc1ef4b0526,8e75375b-f21e-47f6-83b6-44ff8d2f8a37,b6f4c7c4-0492-46ab-829d-674539a1f06c,,24106,Indie Deep Ellum,2900 Canton Street,Dallas,TX,Dallas,75226,Dallas/Ft. Worth,TX-DFW-Intown/Oaklawn,1,2019,Mid-Rise,231,32.78258125,-96.78093184,184849.0,PRIMARY_USE_FOOD_SERVICE,279,9.0,Very Low,Low,Very Low,Moderate,Very Low,Moderate,Very Low,Moderate,Very Low,Moderate,Very Low,Moderate,Very Low,High,Very Low,High
81,2724d418-4061-40d9-9ded-07bdb718dd17,c4c97bd3-8e4e-4031-9a58-30a68efb7d79,509eec39-7cf7-4e0b-ae62-eba2564b5f7b,6fd4c39a-1f34-45e4-a560-dc8638cc331c,,24109,Luna Upper Westside,2265 Marietta Boulevard NW,Atlanta,GA,,30318,Atlanta,GA-ATL-NW,1,2020,Mid-Rise,345,33.81866628,-84.44928381,,PRIMARY_USE_FOOD_SERVICE,488,6.0,Very Low,Low,Very Low,Moderate,Very Low,Moderate,Not Assessed,Moderate,Not Assessed,Moderate,Not Assessed,Moderate,Very Low,Moderately High,Very Low,Moderately High
82,9dcaefa0-e0a0-4298-8f86-9eb3a1183068,cf5d3cf8-56b6-4ecb-a349-8d7f90ade302,404a6aff-6d29-4ffe-8810-d30f8157f024,b28745c3-c84f-45f8-bfe8-64477914d60d,,24112,Westerly,441 W Commerce Street,Dallas,TX,Dallas,75208,Dallas/Ft. Worth,TX-DFW-West Dallas,1,2020,Mid-Rise,331,32.7735806,-96.83137135,270730.0,PRIMARY_USE_RESIDENTIAL,404,7.0,Very Low,Low,Low,Moderately High,Low,Moderately High,Very Low,Low,Very Low,Low,Very Low,Low,Very Low,High,Very Low,High
83,7a1051c4-450a-44f8-828b-3405856cadd3,042403ac-0124-4bab-b64a-437966e77463,93f7d97a-ec1c-4ba3-a530-6dfc65c66abc,8dc59689-2f4a-49d3-b0f5-d5ec5498347c,,24115,Olivian at The Realm,3964 TX-121,Lewisville,TX,Denton,75056,Dallas/Ft. Worth,TX-DFW-Far North Dallas,1,2021,Mid-Rise,421,33.06023418,-96.89893402,390625.0,PRIMARY_USE_RESIDENTIAL,577,6.0,Very Low,Low,Low-Medium,Moderately High,Low-Medium,Moderately High,Very Low,Low,Very Low,Low,Very Low,Low,Very Low,High,Very Low,High
84,946b85ea-eff5-4702-8bb0-c5604cc372e9,d75b0f60-9f66-4d8b-b0e2-947cdccea2f2,300a2575-8b62-42ff-a3c4-4d594d702097,f50a6c67-ecea-43e5-b37a-9e6a4d1118ae,,24117,Juniper Sandy Springs,6558 Roswell Road,Sandy Springs,GA,Fulton,30328,Atlanta,Perimeter,1,2017,Mid-Rise,230,33.93450209,-84.38099938,,PRIMARY_USE_RESIDENTIAL,319,4.0,Very Low,Low,Very Low,Moderate,Very Low,Moderate,Not Assessed,Low,Not Assessed,Low,Not Assessed,Low,Very Low,Moderately High,Very Low,Moderately High
85,01c820fc-9cb1-4e59-b21c-d40198196887,d0e3e109-fded-4326-ac66-458a86ec3a82,4c8cbb3c-8d71-484d-86df-659e60b708f4,9c819207-b31d-4eff-8432-66cc873b7d12,,24122,Milo,4109 E 10th Ave,Denver,CO,Denver,80220,Denver,CBD/Cherry Creek,1,2019,Mid-Rise,319,39.73205514,-104.9393176,269168.0,PRIMARY_USE_RESIDENTIAL,463,10.0,Very Low,Low,Very Low,Moderate,Very Low,Moderate,Very Low,Low,Very Low,Low,Very Low,Low,Very Low,Moderately High,Very Low,Moderately High
86,584bf8e0-5248-40c8-84df-b33535438055,ec461657-a682-4b3c-bbbb-5a83d8999fa7,f48e5ca4-c6bb-4835-bfba-8ed0a034c7ed,1c23fd6a-aa4f-47cf-adfc-d208a3566189,,24123,Theo,985 Albion St,Denver,CO,Denver,80220,Denver,CBD/Cherry Creek,1,2018,Mid-Rise,275,39.73173058,-104.9395027,207241.0,PRIMARY_USE_RESIDENTIAL,351,10.0,Very Low,Low,Very Low,Moderate,Very Low,Moderate,Very Low,Low,Very Low,Low,Very Low,Low,Very Low,Moderately High,Very Low,Moderately High
87,5a90e44d-3212-4581-a5b0-b0dbef370a2f,b71f0216-226e-4b29-9dff-060055239e31,71b5217a-3a8c-44a4-8b3d-6ae70956c4ce,185550ae-309d-4c09-82e4-83637ede6dec,,24125,Mara Pacific Beach,4275 Mission Bay Dr,San Diego,CA,San Diego,92109,San Diego,I-5 Corridor,1,2019,Mid-Rise,172,32.80116385,-117.2127563,169571.0,PRIMARY_USE_RETAIL,247,5.0,Very Low,Moderately High,Low,Moderately High,Low,Moderately High,Very Low,Low,Very Low,Low,Very Low,Low,Very Low,Moderate,Very Low,Moderate
88,1bf020c3-fe42-4391-bc3a-349e091fafa2,c30c5d6b-e3d5-49c0-a3e3-25736dbc560f,36df9a1d-68f3-4727-ba7b-da8ea1d580a3,86167abb-620a-402b-aed8-bd8558a4ee70,,24128,The Weaver,1401 Art Dilly Drive,Austin,TX,Travis,78702,Austin,East Austin,1,2020,Mid-Rise,250,30.25274824,-97.73201511,186507.0,PRIMARY_USE_RESIDENTIAL,314,5.0,Very Low,Low,Very Low,Moderate,Very Low,Moderate,Very Low,Low,Very Low,Low,Very Low,Low,Very Low,High,Very Low,High
89,d2ac2e9e-bddc-4949-854c-9b3f5f07a991,fd913ad2-bda7-4025-b79a-21282576de89,8202593b-a9c5-44e1-bd71-536b741fc05d,1b963c14-5f5b-4a6b-9766-333906ccba80,,24222,Westside Barry,C on Pico,Los Angeles,CA,Los Angeles,90064,Los Angeles,West Los Angeles,1,1989,Mid-Rise,18,34.048597,-118.45918,23040.0,PRIMARY_USE_RESIDENTIAL,36,4.0,Very Low,Very High,Low-Medium,Moderately High,Low-Medium,Moderately High,Very Low,Low,Very Low,Low,Very Low,Low,Very Low,Moderately High,Very Low,Moderately High
90,f6e1e027-e6fb-4ea9-bae2-70195c4104dc,1a99bd9a-bcf8-4e2e-8be0-d5ebc1f93478,1cbdf4ed-7900-402c-9a7d-4c1b3e337ab9,eaac2ad4-6c06-4b64-b2c1-ac25ac3c5f4b,,24300,Eleve Lofts and Skydeck,200 East Broadway,Glendale,CA,Los Angeles,91205,Los Angeles,Glendale/Pasadena,1,2013,Mid-Rise,208,34.145852,-118.253505,114079.0,PRIMARY_USE_FOOD_SERVICE,228,9.0,Very Low,Very High,Very Low,Moderate,Very Low,Moderate,Very Low,Low,Very Low,Low,Very Low,Low,Very Low,High,Very Low,High
91,7b902efc-02b1-44bd-b92a-4326a318d94f,af834b0a-6135-47c8-86ce-27c04cac7998,eb3dd18f-34d1-411e-9977-fd826f99662b,7df3aa27-4121-4291-b138-480980d6be7f,,24302,Alcyone,301 Minor Ave North,Seattle,WA,King,98109,Seattle,South Lake Union,1,2004,Mid-Rise,162,47.621172,-122.333413,119397.0,PRIMARY_USE_FOOD_SERVICE,197,10.0,Very Low,High,Very Low,Moderate,Very Low,Moderate,Very Low,Low,Very Low,Moderate,Very Low,Low,Very Low,Moderate,Very Low,Moderately High
92,15a25f1c-ceac-4baf-9255-4263d1e92ac7,9519bb11-a5b9-4b1c-a14a-24d068857515,c6186bad-70b1-4e3a-a105-a68001e5ac84,cb08d66f-c7a7-4ae2-8bf5-a5b9300f4166,,24304,Square One,1020 NE 63rd St,Seattle,WA,Kings,98115,Seattle,North Seattle,1,2014,Mid-Rise,112,47.674176,-122.316714,59321.0,PRIMARY_USE_RESIDENTIAL,131,6.0,Very Low,High,Very Low,Moderate,Very Low,Moderate,Very Low,Low,Very Low,Low,Very Low,Low,Very Low,Moderate,Very Low,Moderate
93,ca3d9482-7a91-4aa3-8686-9dcac04d4999,0e9f9e7e-2d80-4428-8c1f-1ef98237ba95,5c6a1afe-5f4e-4295-8bb7-9cd3eb3ee8f2,bb23a047-fe95-4681-8643-820f008b34c0,,24305,315 on A,315 A Street,Boston,MA,Suffolk,2210,Boston,City of Boston,1,2013,High-Rise,202,42.349003,-71.049033,157802.0,PRIMARY_USE_OFFICE,241,20.0,Very Low,Low,Very Low,Moderate,Very Low,Moderate,Medium,Very High,Medium,Very High,Medium-High,Very High,Very Low,Moderately High,Very Low,Moderately High
94,0adf4620-d4e8-4727-b092-fc25b6809d54,ab4a3f8a-5614-480c-a5f8-1dd1386a0654,aaf2224c-084a-4811-9523-8f3d11dee7c5,85705c39-72ac-48e6-91aa-ea544005fc31,,27002,Old Town Lofts,16175 Cleveland St.,Redmond,WA,King,98052,Seattle,Bellevue/Redmond,1,2014,Mid-Rise,149,47.673923,-122.125271,106044.0,PRIMARY_USE_FOOD_SERVICE,164,9.0,Very Low,High,Very Low,Moderate,Very Low,Moderate,Low,High,Low,High,Low,High,Very Low,Moderate,Very Low,Moderate
95,46a198b8-3e36-497e-b9d9-fe18dd28a33e,aa455dc4-ceb5-4057-b14a-1e642343f87b,21f30a8b-7b47-43ea-9ff8-f45c54f8ccbc,3cabf352-7ae9-4db9-974b-0cf0e86848ce,,27050,The Pearl,1530 15th Ave,Seattle,WA,King,98122,Seattle,Capital Hill/First Hill,1,2008,Mid-Rise,80,47.614706,-122.312407,53420.0,PRIMARY_USE_RESIDENTIAL,80,7.0,Low-Medium,High,Very Low,Moderate,Very Low,Moderate,Very Low,Low,Very Low,Low,Very Low,Low,Very Low,Moderate,Very Low,Moderately High
96,cb4d24d5-71b5-4ac6-8837-5fa62722721f,4e0a348f-b501-4fe5-a009-f8099310ab6c,5660d869-a978-4a40-bd25-006644db996b,ad45c2d7-5f14-4831-a5cf-e8728cc109b6,,27052,Packard Building,1530 12th Avenue,Seattle,WA,King,98122,Seattle,Capital Hill/First Hill,1,2010,Mid-Rise,61,47.615184,-122.316378,43921.0,PRIMARY_USE_HEALTHCARE,62,6.0,Very Low,High,Very Low,Moderate,Very Low,Moderate,Very Low,Low,Very Low,Low,Very Low,Low,Very Low,Moderate,Very Low,Moderately High
97,31e5c41d-76cb-4bc9-9d67-abfcb52e8fcc,4bac85d1-c6d1-48f4-a645-527b15c887fc,846d067f-e4aa-4542-bab1-3abe57460d9f,2214b3fb-c8d9-499c-a8f9-bb135b9486c7,,27139,2300 Elliott,2300 Elliott Avenue,Seattle,WA,King,98121,Seattle,Belltown/CBD,1,1992,Mid-Rise,92,47.61198047,-122.3482662,66501.0,PRIMARY_USE_RESIDENTIAL,113,5.0,Very Low,High,Very Low,Moderate,Very Low,Moderate,Very Low,Low,Very Low,Moderate,Very Low,Low,Very Low,Moderate,Very Low,Moderately High
98,2a7f24e1-80e7-4078-86e0-ee27b45aa8f2,2163d6f1-d058-44cc-b59b-80390a7647b1,fb8dfbb7-5c76-47dc-8276-74221490302e,059038c5-0855-42b9-82b2-1741d22b6bb4,,27141,Seventh and James,600 Seventh Ave,Seattle,WA,King,98104,Seattle,Capital Hill/First Hill,1,1992,Mid-Rise,96,47.60454441,-122.3269393,66800.0,PRIMARY_USE_RESIDENTIAL,120,5.0,Low-Medium,High,Very Low,Moderate,Very Low,Moderate,Low-Medium,High,Low-Medium,Low,Low-Medium,High,Very Low,Moderate,Very Low,Moderately High
99,dbd8dbcb-58d8-4dcc-bdda-bd94d73bc668,224f74a0-47ef-4cd9-88a6-8b79c84e9cc6,0ba61de6-ffad-487b-940a-bf18664221c3,361a3549-41ac-4abc-a9a0-0d10fb7cd15a,,27165,Geary Courtyard,639 Geary Street,San Francisco,CA,San Francisco,94102,San Francisco Bay Area,SF-Downtown,1,1990,High-Rise,165,37.7865984,-122.4137587,84916.0,PRIMARY_USE_RESIDENTIAL,166,16.0,Low-Medium,High,Very Low,Moderate,Very Low,Moderate,Very Low,Low,Very Low,Low,Very Low,Low,Very Low,Moderate,Very Low,Moderate
100,e3062b1f-b597-4280-ad8c-85a560b786b5,eeef497f-49ca-4316-929d-5bf9d17e2c54,f25ae1c2-f3c9-4a7d-92ba-d4db04804b7a,49f42ac1-21e0-4326-a3e4-215beee483bc,,27167,Bellevue Meadows,4277 148th Ave. NE,Bellevue,WA,King,98007,Seattle,Bellevue/Redmond,14,1983,Garden,180,47.64753416,-122.1430871,144208.0,PRIMARY_USE_RESIDENTIAL,292,2.0,Very Low,High,Very Low,Moderate,Very Low,Moderate,Very Low,Low,Very Low,Low,Very Low,Low,Very Low,Moderate,Very Low,Moderate
101,d430b576-0d30-4554-ac58-0cb07bad4ea4,899dc658-e6f9-4ed4-aaaf-6c3531507ffe,1c053481-cfb2-4937-abf0-c18f10bb6872,46f4e119-30f6-46ba-a4e0-39a29d290c31,,27168,Chelsea Square,16340 NE 83rd St,Redmond,WA,King,98052,Seattle,Bellevue/Redmond,6,1991,Garden,113,47.67663286,-122.1223344,107534.0,PRIMARY_USE_RESIDENTIAL,180,3.0,Very Low,High,Very Low,Moderate,Very Low,Moderate,Medium,High,Medium,High,Medium,High,Very Low,Moderate,Very Low,Moderately High
102,02afc9d3-a215-462f-8ae7-e94e5489c9b0,367d6a4a-a9a2-446f-95ca-5103e7085005,b6dbc1fa-ab64-47de-9609-fe199a8683c7,306a9149-38ef-41fa-9644-140165dbcd49,,27179,Providence,21623 16th Dr. SE,Bothell,WA,Snohomish,98021,Seattle,Bothell/Mill Creek Corridor,12,2000,Garden,200,47.80081817,-122.2113991,189700.0,PRIMARY_USE_RESIDENTIAL,326,3.0,Very Low,High,Very Low,Moderate,Very Low,Moderate,Very Low,Moderate,Very Low,Moderate,Very Low,Moderate,Very Low,Moderate,Very Low,Moderate
103,9da76dd6-1b44-44d7-9213-e0d3f1b03b91,d5948e2e-6362-43d0-be46-284f754e65d7,56754bbc-02d2-41ff-829c-784e1821e98a,ba14cb80-e7ca-449e-978c-2d09318ed44e,,27180,Olympus I,2801 Western Avenue,Seattle,WA,King,98121,Seattle,Belltown/CBD,2,2000,High-Rise,328,47.61584617,-122.3529822,306091.0,PRIMARY_USE_FOOD_SERVICE,477,18.0,Low-Medium,High,Very Low,Moderate,Very Low,Moderate,Very Low,Low,Very Low,Low,Very Low,Low,Very Low,Moderate,Very Low,Moderately High
104,7cf1f3ea-fa4d-41b0-af2b-c2ace78f1327,4b184332-35b7-4cd6-987a-d6036d31a15b,eb527284-8b7f-42d6-aaef-2e9cfe9c08ce,420b99ba-1740-4c9a-888e-c9c362df3ffd,,27185,Ivorywood,8700 NE Bothell Way,Bothell,WA,King,98011,Seattle,Bothell/Mill Creek Corridor,14,2000,Garden,144,47.75304219,-122.2247462,141242.0,PRIMARY_USE_RESIDENTIAL,246,3.0,Very Low,High,Very Low,Moderate,Very Low,Moderate,Very Low,Low,Very Low,Low,Very Low,Low,Very Low,Moderate,Very Low,Moderate
105,df5ef134-2478-4cce-8600-f09a0eb95a39,485a3bdf-daf9-44b2-b366-f4f4aa73ea31,dc8a563e-56a3-4cae-bcbd-78733a6bb3ed,c5f6f228-4b49-49ad-bd5a-f7dbb8eb248e,,27186,Metro on First,215 First Avenue West,Seattle,WA,King,98119,Seattle,Belltown/CBD,1,2002,Mid-Rise,102,47.61993546,-122.3580169,70038.0,PRIMARY_USE_HEALTHCARE,132,10.0,Low-Medium,High,Very Low,Moderate,Very Low,Moderate,Very Low,Low,Very Low,Low,Very Low,Low,Very Low,Moderate,Very Low,Moderately High
106,27e2cce1-ad06-40e4-9024-7a70c428e662,d7946567-3cd1-41b3-bb41-55eebf18471e,54a44a09-ae7f-4212-8958-fdf3aa5b433a,602b8058-865e-417f-9f2c-63309960263c,,27191,Uwajimaya Village,521 South Weller,Seattle,WA,King,98104,Seattle,Belltown/CBD,3,2002,Mid-Rise,176,47.59753927,-122.327404,131917.0,PRIMARY_USE_RESIDENTIAL,228,5.0,Low-Medium,High,Very Low,Moderate,Very Low,Moderate,Very Low,Low,Very Low,Low,Very Low,Moderate,Very Low,Moderate,Very Low,Moderately High
107,a7cbb06c-649e-459c-a978-2b6af748d691,2f8e7c8d-070d-4e23-ba31-309f4643dcc7,71172489-6952-487b-9513-46662dd20e9d,039204be-428c-445f-b241-0e5152d6b7da,,27193,Harbor Steps,1221 First Avenue,Seattle,WA,King,98101,Seattle,Belltown/CBD,4,2000,High-Rise,763,47.60626825,-122.3376083,652057.0,PRIMARY_USE_SCHOOL,965,29.0,Low-Medium,High,Very Low,Moderate,Very Low,Moderate,Very Low,Low,Very Low,Low,Very Low,Low,Very Low,Moderate,Very Low,Moderately High
108,39f577bc-7789-45e0-98b6-06fe87b16124,4c47d1bd-9dfd-4b7b-b51f-50293606753a,c432ec70-e724-49e9-af8e-9ec7bae06218,bee40122-3f17-40e4-ac86-cc3db87d6300,,27195,Heritage Ridge,16619 Larch Way,Lynnwood,WA,Snohomish,98037,Seattle,Bothell/Mill Creek Corridor,15,1999,Garden,197,47.84799,-122.24638,198916.0,PRIMARY_USE_RESIDENTIAL,394,3.0,Very Low,High,Very Low,Moderate,Very Low,Moderate,Very Low,Low,Very Low,Low,Very Low,Low,Very Low,Moderate,Very Low,Moderate
109,12d3d2f3-1899-40de-a29a-aabdb1f5e8f4,dfe3dc4a-9baa-4c90-b100-1d6580b1e8b4,2eeda1bf-e6fe-4a8a-a780-7e7a9cc5fe3f,bc58dfe7-3cde-4b90-908c-25c3372cd3fa,,27205,The Heights on Capitol Hill,130 Harvard Avenue East,Seattle,WA,King,98102,Seattle,Capital Hill/First Hill,2,2006,Mid-Rise,104,47.619063,-122.322199,64094.0,PRIMARY_USE_FOOD_SERVICE,127,9.0,Low-Medium,High,Very Low,Moderate,Very Low,Moderate,Very Low,Low,Very Low,Low,Very Low,Low,Very Low,Moderate,Very Low,Moderately High
110,f8bfdf33-83ae-4549-9ae0-553b8e6ea91f,b157f08f-e358-465d-be22-49777e0805ed,48922434-bb58-4311-9f03-2bf4ee27eebf,682f9604-1f8a-4754-bdf5-cd2723a3822f,,27209,1500 Mass,1500 Massachusetts Ave,Washington,DC,District of Columbia,20005,Washington DC,DC-Central,1,1951,High-Rise,556,38.906745,-77.035116,270481.0,PRIMARY_USE_RETAIL,556,8.0,Very Low,Low,Very Low,Moderate,Very Low,Moderate,Very Low,Low,Very Low,Low,Very Low,Low,Very Low,Moderately High,Very Low,High
111,342faa89-c8a7-4564-bfae-a3a8392883dd,445a1554-7811-4424-b871-fff8cc728786,f8649acb-f363-42d9-aa8b-1cc235db0734,28fe2bc8-1953-4ac4-b62a-393eba6027ed,,27240,Town Square at Mark Center,1459 North Beauregard Street,Alexandria,VA,Alexandria City,22311,Washington DC,VA-Alexandria,17,1998,Garden,678,38.8285,-77.124522,660311.0,PRIMARY_USE_RESIDENTIAL,1128,5.0,Very Low,Low,Very Low,Moderate,Very Low,Moderate,Very Low,Low,Very Low,Low,Very Low,Low,Very Low,Moderately High,Very Low,High
112,099ca847-a1e4-413a-a652-8b93d812a742,c6a85e53-5c30-4ba6-ae66-6e484bc4dcae,7c28c024-bde4-4242-9a8a-ba4df0dac2e3,710f315e-9ae6-4de9-a8c7-33fa2c299fa8,,27295,Red160,16015 Cleveland Street,Redmond,WA,King,98052,Seattle,Bellevue/Redmond,2,2011,Mid-Rise,250,47.674073,-122.125826,210213.0,PRIMARY_USE_FOOD_SERVICE,310,7.0,Very Low,High,Very Low,Moderate,Very Low,Moderate,Low,High,Low,High,Low,High,Very Low,Moderate,Very Low,Moderate
113,6c39a124-5316-4f77-847c-9e2d98726535,7b747ded-902e-4a8a-8551-d9e3deb60c7a,72b3fec6-d075-4e87-bc29-441779d30bb6,d0fc881c-3684-4c66-899e-dcd34be9b60a,,27487,Reserve at Town Center,14420 North Creek Drive,Mill Creek,WA,Snohomish,98012,Seattle,Bothell/Mill Creek Corridor,36,0,Garden,584,47.867457,-122.218576,566911.0,PRIMARY_USE_RESIDENTIAL,-1,3.0,Medium,High,Very Low,Moderate,Very Low,Moderate,Not Assessed,Low,Not Assessed,Low,Not Assessed,Low,Very Low,Moderate,Very Low,Moderate
114,de00f304-03d1-4e1c-ac25-ac2c72a75efe,c67baad9-1b58-4952-88ed-1930b15be3a0,462a0bef-e55d-4189-ba2c-10bb96602879,de97c52f-edd7-4f00-91a6-308ece6052e7,,27601,Rianna,810 12th Avenue,Seattle,WA,King,98122,Seattle,Capital Hill/First Hill,2,2000,Mid-Rise,156,47.609319,-122.316778,95784.0,PRIMARY_USE_SCHOOL,204,5.0,Low,High,Very Low,Moderate,Very Low,Moderate,Very Low,Low,Very Low,Moderate,Very Low,Moderate,Very Low,Moderate,Very Low,Moderately High
115,a89e500c-846f-4530-b052-e39b3f6e40c8,f9a15295-15b7-4d52-87c6-3653858732bd,3f837252-b834-4def-9eb2-af89e3301e41,9311b57b-1f61-4a7b-a004-bc56308ea87f,,29100,Ocean Crest,873 Stevens Ave,Solana Beach,CA,San Diego,92075,San Diego,I-5 Corridor,4,1986,Mid-Rise,146,32.9842,-117.2595,137274.0,PRIMARY_USE_RESIDENTIAL,231,3.0,Very Low,Moderately High,Low-Medium,Moderately High,Low-Medium,Moderately High,Medium-High,Very High,Medium-High,Very High,Medium-High,Very High,Very Low,Moderate,Very Low,Moderate
116,97eadc55-91ab-467c-97ce-74dfe714d3ac,e8e52980-117a-410d-8866-11068a9a9dd8,3dc667ef-defd-4f04-969f-b18b1a99088d,5c03bc20-7be8-4a54-8d13-b09d8c5f4e3c,,29102,Vista Del Lago,21622 Marguerite Parkway,Mission Viejo,CA,Orange,92692,Orange County,South Orange,51,1986,Garden,608,33.649215,-117.64356,515512.0,PRIMARY_USE_RESIDENTIAL,928,2.0,Very Low,High,Medium,High,Medium,High,Very Low,Low,Very Low,Low,Very Low,Low,Very Low,Moderately High,Very Low,Moderately High
117,5ba38f66-7c19-4d9a-8666-bb2af345eeab,a07e7261-ca03-4585-ac4a-149ee100143b,a641943c-2a5b-4921-9f4d-bf026a62ed16,9af12741-8330-4fab-a324-90359ef058da,,29103,Villa Solana,26035 Moulton Parkway,Laguna Hills,CA,Orange,92653,Orange County,South Orange,17,1984,Garden,272,33.584452,-117.709585,245104.0,PRIMARY_USE_RESIDENTIAL,440,2.0,Very Low,High,Low-Medium,Moderately High,Low-Medium,Moderately High,Very Low,Low,Very Low,Low,Very Low,Low,Very Low,Moderate,Very Low,Moderate
118,bd9cd984-8054-41bc-8ca7-b4bd831fdac5,d70b8439-dea0-4d43-96c1-1157e440d5dc,dce429c5-ee32-4f3e-ad17-a2c02642a844,72baa1e7-225d-4617-a6f8-38b6c66dda58,,29104,Deerwood,15640 Bernardo Center Drive,San Diego,CA,San Diego,92127,San Diego,I-15 Corridor,38,1990,Garden,316,33.00499261,-117.0948601,336885.0,PRIMARY_USE_RESIDENTIAL,759,2.0,Very Low,Moderately High,Medium-High,High,Medium-High,High,Low-Medium,High,Medium,High,Medium,High,Very Low,Moderately High,Very Low,Moderately High
119,7bf7ac85-f4ed-4f5d-b5f0-eaf68c2bbd18,83ac5920-3c91-41d4-bb78-498444837e67,e3885198-1c80-4b9e-ae2b-60fb35dcf356,19b213a4-fe25-4aed-93e3-257e220e4235,,29106,Carmel Terrace,11540 Windcrest Lane,San Diego,CA,San Diego,92128,San Diego,I-15 Corridor,24,1988,Garden,384,32.97788813,-117.0806122,298520.0,PRIMARY_USE_RESIDENTIAL,604,3.0,Very Low,Moderately High,Medium,High,Medium,High,Very Low,Low,Very Low,Low,Very Low,Low,Very Low,Moderately High,Very Low,Moderately High
120,2c102cef-fe74-4228-9a54-069fafb439cc,507d1bc6-de5e-4ab0-b6ff-95f3accb74d2,e892f795-43c1-4edd-9c0f-30b913b09ea8,51a1c7c2-9a33-4a75-94ca-b5a37fb13df3,,29107,Pacific Place,5211 Pacific Concourse Drive,Los Angeles,CA,Los Angeles,90045,Los Angeles,South Bay,2,2008,Mid-Rise,430,33.926853,-118.371279,386807.0,PRIMARY_USE_RESIDENTIAL,599,7.0,Very Low,High,Very Low,Moderate,Very Low,Moderate,Low-Medium,Very High,Low-Medium,Very High,Low-Medium,Very High,Very Low,High,Very Low,High
121,d08541fe-5670-4f7d-ab1e-d87a63665b70,e4222166-11ea-4d9d-bbdf-7e54388c6297,e8bb4923-743a-46ba-b7f7-ee78d6fa4793,4e6b22b9-a545-4070-9fd9-337a9f68e4d5,,29110,Windridge,24922 Hidden Hills,Laguna Niguel,CA,Orange,92677,Orange County,South Orange,22,1989,Garden,344,33.52569416,-117.6953472,375312.0,PRIMARY_USE_RESIDENTIAL,760,2.0,Very Low,Moderately High,Low-Medium,Moderately High,Low-Medium,Moderately High,Medium,Very High,Medium,Very High,Medium,Very High,Very Low,Moderate,Very Low,Moderate
122,289e4f50-29f8-4d54-95b8-b0936de1bcc8,b090a1eb-65c8-432d-903f-7f69572eb56c,375e7fdb-806f-4739-8513-3c73dc7ca46e,78f6f7cc-3cd6-4c19-b2e4-c49933acb1c3,,29111,Regency Palms,6762 Warner Ave.,Huntington Beach,CA,Orange,92647,Orange County,North Orange,39,1969,Garden,310,33.71555159,-118.0108601,252480.0,PRIMARY_USE_RESIDENTIAL,566,2.0,Very Low,High,Low,Moderately High,Low,Moderately High,Medium,Very High,Medium-High,Very High,Medium-High,Very High,Very Low,Moderately High,Very Low,Moderately High
123,97f92500-bb36-4cee-acb7-e45783c20740,6fa88dfb-bec1-44bd-b65b-370e1f551d6d,a49c64c4-3965-493f-bb86-ceabc1550e47,782ddb70-7418-42cb-b495-dbe3189a19ba,,29115,Hampshire Place,501 S. New Hampshire Ave,Los Angeles,CA,Los Angeles,90020,Los Angeles,Hollywood/Mid Wilshire,3,1989,Mid-Rise,259,34.06544554,-118.2929615,169747.0,PRIMARY_USE_RESIDENTIAL,343,6.0,Very Low,Very High,Very Low,Moderate,Very Low,Moderate,Low-Medium,High,Low-Medium,High,Low-Medium,High,Very Low,High,Very Low,High
124,4a51b239-7fb4-4fb9-8882-c1449a6d7325,d37684ce-8910-457b-ad61-beb560228ce9,cd060c03-df59-438f-93a3-24af8478e935,212bffb6-7a13-44c6-99c6-a4425431a75f,,29118,Vintage,955 North Duesenberg Drive,Ontario,CA,San Bernardino,91764,Los Angeles,Inland Empire,12,2005,Garden,300,34.075926,-117.57232,303857.0,PRIMARY_USE_RESIDENTIAL,504,3.0,Very Low,High,Low-Medium,Moderately High,Low-Medium,Moderately High,Medium,Very High,Medium,Very High,Medium,Very High,Very Low,High,Very Low,High
125,55a21cdf-338f-4cfb-8417-cf43e6bbc734,3599fe80-330b-4a0f-84d7-c597aa5e17a6,aa28a533-bc83-46ae-ab6e-7b525df57bb8,6b6b0e76-8210-4c9d-b70a-211a611b4710,,29121,The Reserve at Empire Lakes,11210 4th Street,Rancho Cucamonga,CA,San Bernardino,91730,Los Angeles,Inland Empire,9,2005,Garden,467,34.078478,-117.560124,453674.0,PRIMARY_USE_RESIDENTIAL,789,3.0,Very Low,High,Low-Medium,Moderately High,Low-Medium,Moderately High,Very Low,Low,Very Low,Moderate,Very Low,Moderate,Very Low,High,Very Low,High
126,38f4ce28-c810-4182-b772-e01f22a12202,6789b133-64f2-4db3-bee9-8c14763561c0,ef7fe66d-7363-4e19-8f74-ce5fb7bc798c,250b2f0b-e375-4001-9bc3-e3ccaaac6ef0,,29126,Westside Bundy,C on Pico,Los Angeles,CA,Los Angeles,90064,Los Angeles,West Los Angeles,1,1999,Mid-Rise,23,34.037381,-118.460084,25440.0,PRIMARY_USE_RESIDENTIAL,46,4.0,Very Low,Very High,Low-Medium,Moderately High,Low-Medium,Moderately High,Medium,High,Medium,High,Medium,High,Very Low,Moderately High,Very Low,Moderately High
127,b747ea8c-21a6-47b3-893c-283943f852bc,44c6f6ea-5270-4767-89dc-04ae9bef6a7e,0c94aedb-4d41-4058-8263-fd04f9123cd2,1cfefa4d-d0e9-493f-81be-c4107d39fe68,,29127,Westside  Barrington,C on Pico,Los Angeles,CA,Los Angeles,90064,Los Angeles,West Los Angeles,1,1999,Mid-Rise,36,34.042882,-118.455791,35921.0,PRIMARY_USE_RESIDENTIAL,63,4.0,Very Low,Very High,Low-Medium,Moderately High,Low-Medium,Moderately High,Medium-High,Very High,Medium-High,Very High,Medium-High,Very High,Very Low,Moderately High,Very Low,Moderately High
128,ba8bdec2-0fc4-48c8-bf81-c4ba93db8295,14a75646-4684-4ad8-bf25-704f79ef4c25,579beb7f-2fdf-4ad6-b5f4-24d82dc44c2b,c0841990-21e0-49e8-a262-5fc94ea325ea,,29128,Westside Butler,C on Pico,Los Angeles,CA,Los Angeles,90064,Los Angeles,West Los Angeles,1,1999,Mid-Rise,36,34.040994,-118.448463,37509.0,PRIMARY_USE_RESIDENTIAL,66,4.0,Very Low,Very High,Low-Medium,Moderately High,Low-Medium,Moderately High,High,Very High,Medium-High,Very High,High,Very High,Very Low,Moderately High,Very Low,Moderately High
129,f93d0228-480b-4fcc-a485-1f320dc19dca,87bff08f-d78b-4ebb-a77d-174ccf6cbf25,c6b07d5c-6e78-43f4-ac27-726e6dbc46a2,269c2d0d-7b7d-43d9-86f0-8c69183df723,,29129,Westside Villas,2245 S. Beverly Glen Blvd.,Los Angeles,CA,Los Angeles,90064,Los Angeles,West Los Angeles,3,1999,Mid-Rise,113,34.049187,-118.419936,120318.0,PRIMARY_USE_RESIDENTIAL,209,4.0,Very Low,Very High,Low-Medium,Moderately High,Low-Medium,Moderately High,Very Low,Low,Very Low,Low,Very Low,Low,Very Low,Moderately High,Very Low,Moderately High
130,0b909a5a-6043-47e9-ba01-e0eb5c6bd457,f63b3816-d066-4e58-9b68-254124fbe3bc,c23861db-00d2-48ea-b3ea-61a62d6ca6d1,eb73ff1f-6926-4643-8e2f-921e8e03a042,,29130,Hathaway,3500 Hathaway Avenue,Long Beach,CA,Los Angeles,90815,Los Angeles,South Bay,38,1987,Garden,385,33.793908,-118.148252,266839.0,PRIMARY_USE_RESIDENTIAL,550,3.0,Very Low,High,Very Low,Moderate,Very Low,Moderate,Very Low,Low,Very Low,Low,Very Low,Low,Very Low,Moderate,Very Low,Moderately High
131,a101f00e-3624-4bbc-9888-a12b23a9fae7,087dd7d4-d651-4c9d-b5dc-859b2c1dfd50,e0015e9c-1309-4c16-aec8-69a063f07f6b,a0ec92bc-c718-4acc-a83c-437a327b5980,,29131,Park West,9400 La Tijera,Los Angeles,CA,Los Angeles,90045,Los Angeles,West Los Angeles,5,1987,Mid-Rise,444,33.95608453,-118.4165615,315312.0,PRIMARY_USE_RESIDENTIAL,628,6.0,Very Low,High,Low-Medium,Moderately High,Low-Medium,Moderately High,Low-Medium,High,Medium,Very High,Medium,Very High,Very Low,Moderately High,Very Low,Moderately High
132,dc0b99c6-a150-4645-ad38-d5fe35173a5f,184536b2-76a0-45e9-b307-4570b21b5692,c0b3aee5-7841-419a-9b93-e79bb7079bac,8c8193df-1ead-4898-bc32-a096e670eada,,29133,Oak Park,5325 Oak Park Lane,Oak Park,CA,Ventura,91377,Los Angeles,Ventura County,56,1989,Garden,444,34.18144606,-118.7849263,389800.0,PRIMARY_USE_RESIDENTIAL,712,2.0,Very Low,High,Medium-High,High,Medium-High,High,Medium,High,Medium,High,Medium,High,Very Low,Moderately High,Very Low,High
133,453f8ed7-8463-45dd-abe4-46b0a6b2686e,bbdd3e7e-3b6a-4d79-ba42-5d83bf766d73,5356386f-67bb-4e47-9856-afbf898175be,485190f3-b3be-41d4-ac50-9a99590c66d6,,29136,Summerset Village,11450 North Poema Place,Chatsworth,CA,Los Angeles,91311,Los Angeles,San Fernando Valley,39,1985,Garden,280,34.27854624,-118.6063163,286752.0,PRIMARY_USE_RESIDENTIAL,521,2.0,Very Low,Very High,High,Very High,High,Very High,Very Low,Low,Very Low,Low,Very Low,Low,Very Low,High,Very Low,High
134,0ebd9d5a-4657-416f-ae9e-f246651e565d,8771101e-94ea-47ff-a91a-0abe96564053,dbe44a07-ad4c-4daf-b29d-e1259e7a0e85,6fb6b617-74fb-42b4-97d8-b2db88c6b34c,,29137,Eagle Canyon,13316 Woodsorrel Rd.,Chino Hills,CA,San Bernardino,91709,Los Angeles,Inland Empire,34,1985,Garden,252,34.00992769,-117.7454909,252505.0,PRIMARY_USE_RESIDENTIAL,459,2.0,Very Low,Very High,Medium-High,High,Medium-High,High,Very Low,Low,Very Low,Low,Very Low,Low,Very Low,Moderately High,Very Low,High
135,1c288adc-25ae-488c-b08f-d0354d6bb7e2,88f7ee3a-b4ae-49cc-b4eb-35a4a0ebce5e,05b76438-9eaa-4749-9f82-2809d3cff199,615b7758-5892-4b8c-81c3-f89e2efb2900,,29141,Sonterra at Foothill Ranch,26322 Towne Centre Drive,Foothill Ranch,CA,Orange,92610,Orange County,South Orange,13,1997,Mid-Rise,300,33.682493,-117.6705,278560.0,PRIMARY_USE_RESIDENTIAL,466,3.0,Very Low,High,High,Very High,High,Very High,Medium-High,High,Medium-High,Very High,Medium-High,Very High,Very Low,Moderately High,Very Low,Moderately High
136,7621a866-d9ba-4050-aa90-0240807a5400,194a41aa-6f9b-4318-ba39-cccc7ed2e9a8,cdf79ea2-6e80-4dab-a33a-a7893e596da6,98895cd3-7f54-4a0c-b07f-b3f16d1504c5,,29151,Portofino (Chino Hills),2851 Bedford Lane,Chino Hills,CA,San Bernardino,91709,Los Angeles,Inland Empire,19,1989,Garden,176,34.00783072,-117.7412657,153708.0,PRIMARY_USE_RESIDENTIAL,340,2.0,Very Low,Very High,Medium-High,High,Medium-High,High,Medium-High,High,Medium-High,Very High,High,Very High,Very Low,Moderately High,Very Low,High
137,4270d89a-9da7-4ccb-9312-02bc8ade388e,1f5ac1f0-bcb9-4abc-8db4-3cb1661fabdd,629bf318-45df-4fc5-a8f4-c263c145d80a,4ba1f58e-e300-4c0b-ac2b-0df39362be17,,29152,Canyon Ridge,3187 Cowley Way,San Diego,CA,San Diego,92117,San Diego,I-5 Corridor,9,1989,Garden,162,32.80043207,-117.1936608,129600.0,PRIMARY_USE_RESIDENTIAL,252,2.0,Very Low,Moderately High,Low-Medium,Moderately High,Low-Medium,Moderately High,Very Low,Low,Very Low,Low,Very Low,Low,Very Low,Moderate,Very Low,Moderate
138,099d88be-649e-4016-9443-2c07100f96ff,a777e651-4f02-44d3-8da8-8e49e6df518a,8cd84f9d-5742-4a33-a394-565ef6efee48,4c1d8226-b6e1-416e-9608-74406767895a,,29156,Versailles (Woodland Hills),23100 Ave San Luis,Woodland Hills,CA,Los Angeles,91364,Los Angeles,San Fernando Valley,2,1991,Mid-Rise,253,34.16185366,-118.6301679,263985.0,PRIMARY_USE_RESIDENTIAL,505,4.0,Very Low,High,Low-Medium,Moderately High,Low-Medium,Moderately High,Low,High,Low,High,Low,High,Very Low,Moderately High,Very Low,High
139,4044bfd5-8cbe-4630-b7d9-9259b3c3fb65,1b4fb684-5f1b-4154-a1d2-c4f5c84daa1d,3d97f812-d7bc-48a3-a615-f860ddc279b4,92d83c23-d476-4a40-ace6-86f90ca2f7f9,,29158,Artisan Square,19200 Nordhoff Street,Northridge,CA,Los Angeles,91324,Los Angeles,San Fernando Valley,17,2002,Garden,140,34.234836,-118.551729,160981.0,PRIMARY_USE_RESIDENTIAL,268,2.0,Very Low,Very High,Low-Medium,Moderately High,Low-Medium,Moderately High,Very Low,Low,Very Low,Low,Very Low,Low,Very Low,High,Very Low,High
140,e2768175-0e92-4c31-814b-225b680211d1,770cce7d-bed5-467f-a3c4-8f3ef1604ab1,9b5a69fa-1f41-4c6c-86fa-052318da58e9,90ab31d1-a6c4-4c6a-bca5-715d9f9fd783,,29160,Briarwood,180 Pasito Terrace,Sunnyvale,CA,Santa Clara,94086,San Francisco Bay Area,SF-South Bay,8,1985,Garden,192,37.38337954,-122.0402255,157264.0,PRIMARY_USE_RESIDENTIAL,288,3.0,Very Low,Very High,Very Low,Moderate,Very Low,Moderate,Medium,Very High,Medium,Very High,Medium,Very High,Very Low,Moderately High,Very Low,High
141,eb367f02-a6d9-4267-bd7d-c2ade09b07af,e7549b1e-d1ea-446c-8d20-6b3911579657,400e5b80-dcb7-4cca-855a-f975f880f3e1,cd21bfe2-a9e1-4fe4-90eb-5a544ae3a924,,29162,Creekside,1600 East 3rd Avenue,San Mateo,CA,San Mateo,94401,San Francisco Bay Area,SF-Peninsula,13,1985,Garden,192,37.57317798,-122.311312,142384.0,PRIMARY_USE_RESIDENTIAL,280,3.0,Very Low,Very High,Very Low,Moderate,Very Low,Moderate,Medium-High,Very High,High,Very High,High,Very High,Very Low,Moderately High,Very Low,Moderately High
142,c854a273-3807-4945-aba3-350f1a7593e0,a095b2b3-a454-4a29-b1f1-acff3b643cd6,90f27b2b-db6c-43c0-b7da-94e5183bdf7d,010dec0b-432f-4ec5-bd9f-70965685307e,,29164,Arbor Terrace,555 E. EL CAMINO REAL,Sunnyvale,CA,Santa Clara,94087,San Francisco Bay Area,SF-South Bay,9,1979,Garden,175,37.36258905,-122.0257606,132157.0,PRIMARY_USE_RESIDENTIAL,291,3.0,Very Low,Very High,Very Low,Moderate,Very Low,Moderate,Medium-High,Very High,Medium-High,Very High,Medium-High,Very High,Very Low,Moderately High,Very Low,Moderately High
143,363f5ed6-edfb-43c3-b6e4-8bdeceacf1d5,4bd88c46-0e50-4381-b57c-54b91ef21a6b,3143283f-f313-4805-8d2f-04f204005d4d,4a6197a6-3994-4355-90e0-e2a117dc9432,,29165,Mozaic at Union Station,888 N. Alameda Street,Los Angeles,CA,Los Angeles,90012,Los Angeles,Downtown CBD,2,2007,Mid-Rise,272,34.057871,-118.237138,252699.0,PRIMARY_USE_RESIDENTIAL,372,7.0,Low,Very High,Low,Moderately High,Low,Moderately High,Low-Medium,Very High,Low-Medium,Very High,Low-Medium,Very High,Very Low,High,Very Low,High
144,7a9f712e-5442-4808-bc77-b9195e7f3204,d23e1f14-18f8-42a9-a24f-9643f6f22750,7980e9bc-2cd8-4ca9-ac21-a2c80b4769d0,08f06915-4a09-4e19-bd36-c35debc39f72,,29167,Bay Hill,3801 East Pacific Coast Hwy,Long Beach,CA,Los Angeles,90804,Los Angeles,South Bay,10,2002,Mid-Rise,160,33.78977569,-118.1481341,145144.0,PRIMARY_USE_RESIDENTIAL,247,5.0,Very Low,High,Very Low,Moderate,Very Low,Moderate,Very Low,Low,Very Low,Low,Very Low,Low,Very Low,Moderate,Very Low,Moderately High
145,d2a336df-d363-4732-80b8-7c5146671cd7,54d41622-aa8f-4823-9b77-c0dcca3f8a53,4709f412-28ac-4ccb-b66e-4b5660cef13e,3380cd1a-ec97-42a2-bafb-3959430ac074,,29168,Parkside,1501 Decoto Road,Union City,CA,Alameda,94587,San Francisco Bay Area,SF-East Bay,15,1979,Garden,208,37.590304,-122.02198,143120.0,PRIMARY_USE_RESIDENTIAL,312,2.0,Low-Medium,Very High,Low,Moderately High,Low,Moderately High,Very Low,Moderate,Very Low,Moderate,Very Low,Moderate,Very Low,Moderately High,Very Low,High
146,cc99eeda-4365-4ea2-afdd-46407b9f1e7d,c189476c-5bc2-44e9-85dd-9f1225cee2a2,dadb7801-9737-47c3-910f-c956fdfe1dae,96d8c4f4-d430-4291-9f0c-dcd0d2e6243b,,29169,Skylark,34655 Skylark Drive,Union City,CA,Alameda,94587,San Francisco Bay Area,SF-East Bay,9,1986,Garden,174,37.5853667,-122.02095,140340.0,PRIMARY_USE_RESIDENTIAL,258,3.0,Low-Medium,Very High,Very Low,Moderate,Very Low,Moderate,Medium,Very High,Medium,Very High,Medium,Very High,Very Low,Moderately High,Very Low,High
147,35815b2e-2b08-46c3-b67f-1f0510ee6939,1e86a34a-efc8-4eff-a526-4bdb57b989de,324687da-433a-4234-9a92-7e3124cdd5bc,2e227a79-c4a5-47c3-948b-477af846350d,,29170,Southwood,2850 MIDDLEFIELD ROAD,Palo Alto,CA,Santa Clara,94306,San Francisco Bay Area,SF-South Bay,5,1985,Garden,100,37.43218982,-122.1273695,84200.0,PRIMARY_USE_RESIDENTIAL,140,4.0,Low-Medium,Very High,Very Low,Moderate,Very Low,Moderate,Medium,Very High,Medium,Very High,Medium,Very High,Very Low,Moderately High,Very Low,Moderately High
148,d7f032bc-00f8-4bf1-afa9-fff933d7856d,30303f3c-fd3e-4b60-bfca-68b7bdc1d5bf,f982ab5e-eca8-4af5-a8c4-3f8be3032ab2,d9b5672e-ce1f-408d-9e85-10359702de8c,,29172,Woodleaf,325 Union Ave,Campbell,CA,Santa Clara,95008,San Francisco Bay Area,SF-South Bay,8,1984,Garden,178,37.28193104,-121.9356448,130400.0,PRIMARY_USE_RESIDENTIAL,276,3.0,Very Low,Very High,Very Low,Moderate,Very Low,Moderate,Very Low,Low,Very Low,Low,Very Low,Low,Very Low,Moderately High,Very Low,Moderately High
149,e26e62a7-e1fd-45fd-9eed-8e35011c6f14,6d868603-94ee-4694-a372-973c2d8d895c,1076f8db-18d2-4f54-a5a2-88065ec4dcde,d5f3c061-fca7-4e0c-9878-8e37a33822a0,,29174,Toscana,35  Via Lucca,Irvine,CA,Orange,92612,Orange County,North Orange,9,1991,Mid-Rise,563,33.66741968,-117.8489719,502346.0,PRIMARY_USE_RESIDENTIAL,808,6.0,Very Low,High,Low-Medium,Moderately High,Low-Medium,Moderately High,Very Low,Low,Very Low,Low,Very Low,Low,Very Low,Moderately High,Very Low,Moderately High
150,9d1928e4-2957-4f76-939f-a1b9e1e89be6,85b080e6-a844-4a99-9490-4c5330c90cea,cdbf4563-2e11-4e40-ba54-990fe43111f6,e2fe67c2-109b-466a-b3e5-2ff66413b60d,,29177,Siena Terrace,20041 Osterman Road,Lake Forest,CA,Orange,92630,Orange County,South Orange,22,1988,Garden,356,33.659332,-117.6666,293200.0,PRIMARY_USE_RESIDENTIAL,576,2.0,Very Low,High,Medium,High,Medium,High,Very Low,Low,Very Low,Low,Very Low,Low,Very Low,Moderately High,Very Low,Moderately High
151,6babfb62-f5a9-4075-9a9d-fb08e912ded5,01d329a5-240b-42a9-8e06-165fda1a56dc,d1220127-13e2-4683-9f8c-fdbc3e43f236,28bc71cd-0554-40e6-9d83-be958d84dc7c,,29178,SkyView,21022 Los Alisos Blvd.,Rancho Santa Margarita,CA,Orange,92688,Orange County,South Orange,19,1999,Garden,260,33.65667211,-117.6237733,232132.0,PRIMARY_USE_RESIDENTIAL,464,2.0,Very Low,High,High,Very High,High,Very High,Very Low,Low,Very Low,Low,Very Low,Low,Very Low,Moderately High,Very Low,High
152,0fa6fe01-3541-4baa-b28b-517a9aa26049,60d83caf-8fde-42de-b400-15b734cf9f22,002f7dd2-5f1f-4c02-a3d6-ece6456192d0,25e9fdab-2efa-42a7-9e85-b75a8d0ff9b9,,29179,Alborada,1001 Beethoven Common,Fremont,CA,Alameda,94538,San Francisco Bay Area,SF-South Bay,18,1999,Garden,442,37.5581137,-121.9651692,439198.0,PRIMARY_USE_RESIDENTIAL,706,3.0,Low-Medium,Very High,Low-Medium,Moderately High,Low-Medium,Moderately High,Very Low,Low,Very Low,Low,Very Low,Low,Very Low,Moderately High,Very Low,High
153,323d73e9-da63-4453-9f35-f978573788e5,254459df-83cf-43d8-8aec-39f6a4295c7d,205e24f2-96b0-4bd5-bd1a-e2103aea659c,1e808d4b-af84-4b64-8c5a-415dc5c423fc,,29180,Centre Club,1005 North Center Avenue,Ontario,CA,San Bernardino,91764,Los Angeles,Inland Empire,13,1994,Garden,412,34.076228,-117.57999,382825.0,PRIMARY_USE_RESIDENTIAL,672,4.0,Very Low,High,Medium,High,Medium,High,Medium,Very High,Medium,Very High,Medium,Very High,Very Low,High,Very Low,High
154,62f33f8f-fc3b-4cc5-acce-643715fa8cfd,2315fc94-51a4-4f87-a5b2-7f89ee70b663,0f5001f0-ca7c-44a9-96b8-6f222ec747bd,3c3e9654-8311-4e63-b940-5d2ab9a72260,,29182,Montierra,9904 Kika Court,San Diego,CA,San Diego,92129,San Diego,I-15 Corridor,17,1990,Garden,272,32.94089588,-117.1134971,282544.0,PRIMARY_USE_RESIDENTIAL,528,2.0,Very Low,Moderately High,Medium,High,Medium,High,Low,High,Low,High,Low,High,Very Low,Moderately High,Very Low,Moderately High
155,3b310144-2210-4ee6-bb17-5545c2336ec8,ddee4342-3670-4706-857a-ce48b1846fd8,e4d0777c-2323-456b-9b43-bc78e828ea80,040de115-3ce9-4e44-9348-61cbc5a2f423,,29183,Portofino (Valencia),24452 Valencia Blvd,Valencia,CA,Los Angeles,91355,Los Angeles,Santa Clarita Valley,9,1989,Garden,216,34.41176597,-118.5642257,208287.0,PRIMARY_USE_RESIDENTIAL,324,4.0,Very Low,Very High,Medium,High,Medium,High,Medium,High,Medium-High,Very High,Medium-High,Very High,Very Low,High,Very Low,High
156,1921098d-0742-42d4-848b-3bb14715829a,4db5f37b-2ad8-4498-a00b-db9204b0c95a,90fa9d05-7bd3-42ea-8cbb-7c66ea535d44,18938a02-84e3-434c-8e0d-c9ab303f8665,,29184,Skycrest,27800 N. McBean Parkway,Valencia,CA,Los Angeles,91354,Los Angeles,Santa Clarita Valley,19,1999,Garden,264,34.44655761,-118.5532632,230690.0,PRIMARY_USE_RESIDENTIAL,396,3.0,Very Low,Very High,High,Very High,High,Very High,Medium,High,Medium,High,Medium,High,Very Low,High,Very Low,High
157,869d8d7c-6605-40e5-b578-2db9e6f39b1b,5c7513f5-67d1-44a1-9386-53373c9207e1,7df40242-29e5-4a6e-8669-fde0b4470255,8b42dcf5-f409-4b36-abdc-cf095d35647b,,29186,Northglen,23516  W. Magic Mountain Parkw,Valencia,CA,Los Angeles,91355,Los Angeles,Santa Clarita Valley,15,1988,Garden,234,34.41505696,-118.5463803,239250.0,PRIMARY_USE_RESIDENTIAL,345,2.0,Very Low,Very High,Medium-High,High,Medium-High,High,Very Low,Low,Very Low,Low,Very Low,Low,Very Low,High,Very Low,High
158,e1038b02-65cd-4588-a58f-e8de6dc54b34,81387fa7-9b5f-41b5-b8bb-414ffcd47dfe,9dcdbb59-8d55-466b-b084-8603fda9e75c,63b6c444-c0d2-4301-ac40-d20f6d549d1b,,29189,Del Mar Ridge,12629 El Camino Real,San Diego,CA,San Diego,92130,San Diego,I-5 Corridor,5,1998,Mid-Rise,181,32.94733,-117.23736,224577.0,PRIMARY_USE_RESIDENTIAL,354,5.0,Very Low,Moderately High,Low-Medium,Moderately High,Low-Medium,Moderately High,Low-Medium,High,Medium,Very High,Medium,Very High,Very Low,Moderate,Very Low,Moderate
159,1955bfa0-98a4-40ef-9cc2-cb4ad65fbe11,272de0be-6961-45f2-810e-3586e7c8b79e,7270687e-e606-4f2f-8ca4-f324745acd03,309ba243-bf1b-44ea-ac67-d0be7406bfa7,,29190,Westside Beloit,C on Pico,Los Angeles,CA,Los Angeles,90064,Los Angeles,West Los Angeles,1,1999,Mid-Rise,21,34.040594,-118.442335,21893.0,PRIMARY_USE_RESIDENTIAL,36,4.0,Very Low,Very High,Low-Medium,Moderately High,Low-Medium,Moderately High,Medium,High,Medium,High,Medium,High,Very Low,Moderately High,Very Low,Moderately High
160,a4de93e4-b02f-4738-989c-6639fb77da1b,9af509dc-208b-4abb-b4ca-960c2848bd16,1394e503-fa4e-4cc2-9271-edf52759b6a9,eb65666e-2139-4874-831d-7f1e93c6d2fc,,29207,The Kelvin,2850 Kelvin Avenue,Irvine,CA,Orange,92614,Orange County,North Orange,1,2014,Mid-Rise,194,33.682778,-117.836122,175678.0,PRIMARY_USE_RESIDENTIAL,269,4.0,Very Low,High,Very Low,Moderate,Very Low,Moderate,Low-Medium,Very High,Low-Medium,Very High,Low-Medium,Very High,Very Low,Moderately High,Very Low,Moderately High
161,0c273571-abe1-4e6d-94a5-d3f4025db757,735034bc-af91-4fb7-9a77-744ca644519c,a0707bb1-47fe-40b6-9ce6-f2c49466e4ef,d778c50a-6869-4940-b4c1-852755fb8b99,,29209,Laguna Clara,3131 Homestead Road,Santa Clara,CA,Santa Clara,95051,San Francisco Bay Area,SF-South Bay,24,1972,Garden,264,37.33789163,-121.9852525,199964.0,PRIMARY_USE_RESIDENTIAL,356,2.0,Low,Very High,Very Low,Moderate,Very Low,Moderate,Low,Moderate,Low,Moderate,Low,Moderate,Very Low,Moderately High,Very Low,Moderately High
162,c30ace2b-ecd4-4b30-8746-156c7c366eaa,bb79578c-7232-4741-a7c5-d1d4396a62a2,4bad0867-dea8-45d3-ba39-f20739774619,87debaee-053e-4ec4-a168-057badd88530,,29212,Mill Creek,440 Dixon Landing Rd.,Milpitas,CA,Santa Clara,95035,San Francisco Bay Area,SF-South Bay,19,1991,Garden,516,37.45387,-121.918777,458748.0,PRIMARY_USE_RESIDENTIAL,912,3.0,Low-Medium,Very High,Very Low,Moderate,Very Low,Moderate,Medium,Very High,Medium,Very High,Medium,Very High,Very Low,Moderately High,Very Low,High
163,42dc4e58-e18b-435c-95ca-fc8387092d9d,152dec19-8917-433a-b5dd-94aa7d855e6c,e1f00251-74f6-48a1-86e0-2b1fd25b300d,59d8a87c-d638-4cad-85aa-30ccf0e715c1,,29213,Virgil Square,411 South Virgil Avenue,Los Angeles,CA,Los Angeles,90020,Los Angeles,Hollywood/Mid Wilshire,2,1979,Mid-Rise,142,34.06653837,-118.2870329,90832.0,PRIMARY_USE_RESIDENTIAL,164,4.0,Very Low,Very High,Very Low,Moderate,Very Low,Moderate,Very Low,Low,Very Low,Low,Very Low,Low,Very Low,High,Very Low,High
164,fa6a12cf-c42c-4473-a391-1451bc7ce06b,bea04cb0-5186-40b3-ac24-823a488f9e64,4efcb897-ec7b-4cd8-8c2e-489a5ebc523c,6995bee0-81f5-41c5-8cf7-e4d5a1da42ef,,29215,The Oaks,27105 Silver Oak Lane,Santa Clarita,CA,Los Angeles,91387,Los Angeles,Santa Clarita Valley,67,2000,Garden,520,34.40565043,-118.4556019,514619.0,PRIMARY_USE_RESIDENTIAL,939,3.0,Very Low,Very High,Medium-High,High,Medium-High,High,Medium,High,Medium,High,Medium,High,Very Low,High,Very Low,High
165,cbf9a7b1-f7e3-434b-9bd2-c014afbd4e97,f2dd5b18-fea1-4e30-b940-bc7716a19b67,0831cd14-e528-4db3-96ef-46307029bf1d,b8839d58-c386-4d0d-be3d-f931c39c4779,,29221,Jia,639 N. Broadway,Los Angeles,CA,Los Angeles,90012,Los Angeles,Downtown CBD,1,2014,Mid-Rise,280,34.05986,-118.239986,225803.0,PRIMARY_USE_FOOD_SERVICE,335,8.0,Very Low,Very High,Low,Moderately High,Low,Moderately High,Very Low,Low,Very Low,Low,Very Low,Low,Very Low,High,Very Low,High
166,c03ea451-71e5-4d91-bdc6-7562db1a0747,219e89bc-be1b-4de1-a9cd-78cf4c3e02b8,e3ec36d0-413b-472d-82ac-77155fed6197,29ceed40-5d61-4a96-bda2-9ae34562282d,,29229,Bella Vista at  Warner Ridge,6150 DeSoto Avenue,Woodland Hills,CA,Los Angeles,91367,Los Angeles,San Fernando Valley,20,2003,Mid-Rise,579,34.18175683,-118.5904026,580962.0,PRIMARY_USE_RESIDENTIAL,916,4.0,Very Low,High,Low-Medium,Moderately High,Low-Medium,Moderately High,Medium-High,Very High,Medium-High,Very High,Medium-High,Very High,Very Low,High,Very Low,High
167,e1ad14a0-856e-473e-b06a-fede4300af30,88002b0d-f654-4c4a-b791-6f11df008da5,2c25fbf1-5220-40be-b36c-dcc0182dcecd,fc4a05e0-5a8a-4b02-a329-f2aa13fda8ad,,29237,Kelvin Court,2552 Kelvin Avenue,Irvine,CA,Orange,92614,Orange County,North Orange,1,2008,Mid-Rise,132,33.685223,-117.83989,111222.0,PRIMARY_USE_RESIDENTIAL,189,4.0,Very Low,High,Very Low,Moderate,Very Low,Moderate,Low-Medium,Very High,Low-Medium,Very High,Low-Medium,Very High,Very Low,Moderately High,Very Low,Moderately High
168,7484fb6b-2a41-4d00-8359-103483173ba7,db0c16ca-4fe3-4273-aa67-b49413cd60a0,be8add17-4b1e-4e39-a35f-0395e357615a,7de4c9cf-477a-4db0-857a-9a513012c966,,29238,Academy Village,5225 Blakeslee Avenue,North Hollywood,CA,Los Angeles,91601,Los Angeles,San Fernando Valley,1,1989,Mid-Rise,248,34.165445,-118.372476,189640.0,PRIMARY_USE_RESIDENTIAL,347,6.0,Very Low,Very High,Low,Moderately High,Low,Moderately High,Very Low,Moderate,Very Low,Moderate,Very Low,Moderate,Very Low,High,Very Low,High
169,bdcae5cb-ab52-4e4c-abcd-4176b6cf6865,60f4b7ec-45b0-4a0c-b3c6-112efc0f8c8e,aee3d753-9c44-4fae-b34c-4f84311c31fd,413f9057-cdbb-4857-ab71-966a395240ff,,29243,Vista 99,99 Vista Montana,San Jose,CA,Santa Clara,95134,San Francisco Bay Area,SF-South Bay,4,2015,Mid-Rise,554,37.413051,-121.955716,530459.0,PRIMARY_USE_RESIDENTIAL,920,8.0,Medium,Very High,Low-Medium,Moderately High,Low-Medium,Moderately High,Medium-High,Very High,Medium,Very High,Medium-High,Very High,Very Low,Moderately High,Very Low,High
170,6bb05aac-bbf1-41d2-8fae-67f85cb3f4bf,ac10bdd8-2798-44b3-9d46-e26a7ce321e7,dfc16735-e5f0-48a7-ae51-5de8e57e2b87,f6009260-0ca9-4848-bc0b-d83469f1272e,,29245,Market Street Village,699 14th Street,San Diego,CA,San Diego,92101,San Diego,Downtown San Diego,1,2006,Mid-Rise,229,32.7126,-117.151899,154658.0,PRIMARY_USE_RESIDENTIAL,264,8.0,Very Low,Moderately High,Very Low,Moderate,Very Low,Moderate,Very Low,Moderate,Low-Medium,High,Low-Medium,High,Very Low,Moderate,Very Low,Moderate
171,1bfad4d1-6be6-4460-a4e0-c39e9df6081f,748e8e8b-7a09-4c36-bdf7-20e1a89f46d7,10478000-ef78-44cf-9ed4-7bd523f9d9d2,1c09c59a-b57b-4d53-82e3-791c076a612d,,29247,Kenwood Mews,230 North Kenwood Street,Burbank,CA,Los Angeles,91505,Los Angeles,San Fernando Valley,7,1991,Mid-Rise,141,34.155023,-118.34316,132489.0,PRIMARY_USE_RESIDENTIAL,220,4.0,Very Low,Very High,Low-Medium,Moderately High,Low-Medium,Moderately High,Medium,High,Medium,High,Medium,High,Very Low,High,Very Low,High
172,d0d55371-4f30-4d0d-80b4-cff41086502c,fdbfe565-440a-4397-9df3-51fc2eacc8ec,d196eba4-f8ec-4359-91bd-502ca0ed7220,a5106d2b-a239-477a-991b-1dd2b9f931d5,,29248,Avanti,650 West Broadway Street,Anaheim,CA,Orange,92805,Orange County,North Orange,9,1987,Garden,162,33.831598,-117.920755,123168.0,PRIMARY_USE_RESIDENTIAL,254,3.0,Very Low,High,Low-Medium,Moderately High,Low-Medium,Moderately High,Medium,Very High,Medium,Very High,Medium,Very High,Very Low,Moderately High,Very Low,Moderately High
173,903e1d60-9779-4594-8b16-296a72a98869,44236c1b-4cf4-4950-872d-e24da8958ff9,59fc7e43-bc03-46a9-ac82-e4a614b6fcf6,cdb6ba78-0a41-4771-bf08-05032ee4ca14,,29249,City Pointe,130 E. Chapman Avenue,Fullerton,CA,Orange,92832,Orange County,North Orange,1,2004,Mid-Rise,183,33.873939,-117.923666,159525.0,PRIMARY_USE_RESIDENTIAL,237,4.0,Very Low,High,Low,Moderately High,Low,Moderately High,Low,High,Low,High,Low,High,Very Low,Moderately High,Very Low,Moderately High
174,1152a8f9-1a26-4a2e-98b3-118dd8e5d8d1,f9014659-c070-4df6-8687-f080cb122faf,6af7fcc4-4ce8-4117-945b-c7b62e06cc3f,3a52665d-54a2-4e11-9994-ac0dabfc5e8d,,29251,Northpark,1080 Carolan Avenue,Burlingame,CA,San Mateo,94010,San Francisco Bay Area,SF-Peninsula,10,1972,Garden,510,37.587241,-122.361084,351192.0,PRIMARY_USE_RESIDENTIAL,630,4.0,Medium,Very High,Very Low,Moderate,Very Low,Moderate,Low,High,Low,Very High,Low-Medium,Very High,Very Low,Moderately High,Very Low,Moderately High
175,ddf9ccc5-0f54-4253-b915-c673b9dc27c6,b620e615-1715-4691-ae09-1fc783eae74b,8927eb57-b1cf-4962-8cf8-134555313aee,1945807f-16b4-4f0a-bbc5-ecab4ac78888,,29252,Victor on Venice,10001 Venice Blvd,Los Angeles,CA,Los Angeles,90034,Los Angeles,West Los Angeles,1,2006,Mid-Rise,116,34.023001,-118.399598,111669.0,PRIMARY_USE_RESIDENTIAL,152,5.0,Very Low,Very High,Very Low,Moderate,Very Low,Moderate,Very Low,Low,Very Low,Low,Very Low,Low,Very Low,Moderately High,Very Low,Moderately High
176,98ec727b-8e37-41b8-8519-8d978c213766,7a861ecd-a655-44a7-ad16-774010e3ffe6,1be25794-d5ef-4320-a7e4-7b4eab6be823,b1516d62-f44b-4a17-a16f-75395435f1e9,,29255,Versailles Koreatown,918 S. Oxford Avenue,Los Angeles,CA,Los Angeles,90006,Los Angeles,Hollywood/Mid Wilshire,1,2008,Mid-Rise,225,34.055214,-118.307793,172882.0,PRIMARY_USE_RESIDENTIAL,305,8.0,Very Low,Very High,Low,Moderately High,Low,Moderately High,Low,High,Low,High,Low,High,Very Low,High,Very Low,High
177,0c991d83-f93d-4a5a-88d5-37ea3d1ec63c,937e7c96-f1fa-4a38-a131-3b942dafd4c3,d1c19360-cd97-4ef9-aece-3230f6af0b28,b447751e-6fc8-46b0-859b-943e66d89d64,,29256,Acappella Pasadena,145 Chestnut Street,Pasadena,CA,Los Angeles,91103,Los Angeles,Glendale/Pasadena,1,2002,Mid-Rise,143,34.150419,-118.147768,118101.0,PRIMARY_USE_RESIDENTIAL,197,5.0,Very Low,Very High,Low-Medium,Moderately High,Low-Medium,Moderately High,Very Low,Low,Very Low,Low,Very Low,Low,Very Low,High,Very Low,High
178,ab65ff13-b67e-4a13-a73d-a86fe4815220,9eebb509-0003-42b3-b79d-506aa50dfb37,48c871d5-eb45-4935-a1d0-b1294ea509f7,7e740fa4-7e3a-4174-91b5-1dab64251edb,,29259,Verde,5322 Wong Drive,San Jose,CA,Santa Clara,95123,San Francisco Bay Area,SF-South Bay,8,1986,Garden,108,37.257319,-121.829457,86624.0,PRIMARY_USE_RESIDENTIAL,168,3.0,Low-Medium,Very High,Very Low,Moderate,Very Low,Moderate,Very Low,Low,Very Low,Low,Very Low,Low,Very Low,Moderately High,Very Low,High
179,6b3e6b5f-1d33-4c28-a22a-a6a5e2e4126f,c3a349b7-3450-4145-8d51-dda4fd8f5ca1,39ec2164-8417-4f2d-9af6-4e88f9446c98,4ee35133-5e61-499f-9dfc-9589f6e565a5,,29262,Urbana,1501 NW 56th Street,Seattle,WA,King,98107,Seattle,North Seattle,1,2014,Mid-Rise,289,47.669434,-122.376236,210025.0,PRIMARY_USE_HEALTHCARE,327,9.0,Very Low,High,Very Low,Moderate,Very Low,Moderate,Very Low,Low,Very Low,Low,Very Low,Low,Very Low,Moderate,Very Low,Moderate
180,403912ea-b1d1-4a1c-b7ac-f08e55379687,d19321f2-9031-4272-9529-9a375d667238,1a85f9ef-d4a6-46c1-8329-ba3350d253e7,ba7f1fb2-7432-4575-8135-ca60f4e74a33,,29267,Junction 47,4715 42nd Ave SW,Seattle,WA,King,98116,Seattle,West Seattle,2,2015,Mid-Rise,206,47.5607634,-122.3854841,137265.0,PRIMARY_USE_FOOD_SERVICE,229,9.0,Low-Medium,High,Very Low,Moderate,Very Low,Moderate,Very Low,Low,Very Low,Low,Very Low,Low,Very Low,Moderate,Very Low,Moderately High
181,ac9e55a3-9feb-45bd-814d-9a1adaea8653,3986caf0-6dbc-49db-a041-7aacd99234a5,af6e6adc-b89a-43a0-b338-5b829bec99bc,0c6dff18-4652-47f7-80a3-077a1ca1036b,,29271,Moda,2312 3rd Ave,Seattle,WA,King,98121,Seattle,Belltown/CBD,1,2009,Mid-Rise,251,47.61479233,-122.3449439,107585.0,PRIMARY_USE_FOOD_SERVICE,281,9.0,Low-Medium,High,Very Low,Moderate,Very Low,Moderate,Very Low,Low,Very Low,Low,Very Low,Low,Very Low,Moderate,Very Low,Moderately High
182,0e7de970-a06e-4709-a5d1-567576869d9f,d4be2734-deeb-4d6d-8c0f-5aa7ff4817b2,0ce36249-0b85-4f8b-8016-ad3c814c3d34,b9395e09-6ccd-4ca9-9907-014e6be02663,,29272,Lindley,5536 North Lindley Avenue,Encino,CA,Los Angeles,91316,Los Angeles,San Fernando Valley,1,2004,Mid-Rise,129,34.17132372,-118.5272506,137526.0,PRIMARY_USE_RESIDENTIAL,235,4.0,Very Low,High,Very Low,Moderate,Very Low,Moderate,Low,High,Low,High,Low,High,Very Low,High,Very Low,High
183,956309e6-d040-4a09-82c0-34fd2343854d,14ebf378-b556-4fce-9a51-bc1c9ab3df74,e1a421c8-5ede-40cd-95ad-1e79390a71c2,b0f07001-e609-4e2a-b1b9-24b14444278d,,29275,The Clarendon,1200 North Herndon Street,Arlington,VA,Arlington,22201,Washington DC,VA-Arlington-RB Corridor,2,2005,High-Rise,292,38.88774693,-77.09614958,249516.0,PRIMARY_USE_RESIDENTIAL,369,12.0,Very Low,Low,Very Low,Moderate,Very Low,Moderate,Very Low,Low,Very Low,Low,Very Low,Low,Very Low,Moderately High,Very Low,High
184,98c482a1-8943-4e77-93f9-8f7b9358f982,f3d4589c-545d-40be-93db-dfaaac64b3ad,4487a370-a4bb-4346-bae9-3dca5939b764,b811b07f-dd94-4370-b36d-d5cb2ca83cfa,,29276,Hikari,375 East Second St.,Los Angeles,CA,Los Angeles,90012,Los Angeles,Downtown CBD,1,2007,Mid-Rise,128,34.04805588,-118.2398773,94094.0,PRIMARY_USE_RESIDENTIAL,168,8.0,Very Low,Very High,Very Low,Moderate,Very Low,Moderate,Very Low,Moderate,Very Low,Moderate,Very Low,Moderate,Very Low,High,Very Low,High
185,b29ddf11-fc3d-44fb-a0d1-39c1059896b0,077ff22c-6a77-4060-aa2c-41cdcd7646ec,b660c3b0-6c80-46ec-8a1e-ced57d1ce01e,aa5350ab-bc63-48a5-9025-fc952ab5192c,,29277,Cascade,221 Minor Ave N,Seattle,WA,King,98109,Seattle,South Lake Union,2,2017,Mid & High Rises,477,47.619695,-122.334202,315699.0,PRIMARY_USE_FOOD_SERVICE,512,10.0,Very Low,High,Very Low,Moderate,Very Low,Moderate,Very Low,Low,Very Low,Low,Very Low,Low,Very Low,Moderate,Very Low,Moderately High
186,5b5c69ae-88e5-4948-b1d6-3a67d8d4248d,7cc5a2f4-0a31-4abf-b817-84b4e673464b,933bc924-c79d-4ea5-a581-d13570752fdf,74ee251e-d44a-4878-a60b-2cb731e058d4,,29279,Sakura Crossing,235 S. San Pedro St.,Los Angeles,CA,Los Angeles,90012,Los Angeles,Downtown CBD,1,2009,Mid-Rise,230,34.04832226,-118.2421449,166741.0,PRIMARY_USE_RETAIL,281,8.0,Very Low,Very High,Very Low,Moderate,Very Low,Moderate,Low,High,Low,High,Low,High,Very Low,High,Very Low,High
187,8909a4df-a80b-4bbb-ba9d-4fe21b968a22,2ce20212-3668-4dfe-8707-57aa09d535e2,b29f6cc3-fd69-498b-86cc-ccc3ea53f1ac,c430846e-b119-4163-88d5-eb4423cf16e3,,29280,Pegasus,612 S. Flower St.,Los Angeles,CA,Los Angeles,90017,Los Angeles,Downtown CBD,1,1949,High-Rise,322,34.05001,-118.25763,250457.0,PRIMARY_USE_RESIDENTIAL,425,14.0,Medium,Very High,Very Low,Moderate,Very Low,Moderate,Very Low,Low,Very Low,Low,Very Low,Low,Very Low,High,Very Low,High
188,83fbf344-5181-4d75-b17e-6b957b5f50f0,76455dfb-56ed-4cf9-bc9b-18eeba72e8bb,0a7ac52d-ffa2-411b-a0cf-1f9c2b838ce9,760387e5-fb95-4f9f-a2b7-0a3033d11769,,29283,170 Amsterdam,170 Amsterdam Ave,New York,NY,New York,10023,New York - Manhattan,Manhattan-Upper West Side,1,2015,High-Rise,236,40.775926,-73.983624,167665.0,PRIMARY_USE_SCHOOL,290,23.0,Very Low,Low,Very Low,Moderate,Very Low,Moderate,Very Low,Low,Very Low,Low,Very Low,Low,Very Low,Moderately High,Very Low,Moderately High
189,a611b18b-ed29-4265-bbea-b9014e03fcc2,9dc112cb-c55a-4ad5-b34d-2d3507c49b27,2621f4e5-4c02-4cf5-bdb6-d004297406e6,3de7db9b-9caa-4f00-85b9-fd832272c938,,29287,Promenade Town Center,24905 Magic Mountain Parkway,Valencia,CA,Los Angeles,91355,Los Angeles,Santa Clarita Valley,24,2001,Garden,564,34.42194044,-118.5697617,548370.0,PRIMARY_USE_RESIDENTIAL,902,3.0,Very Low,Very High,Medium-High,High,Medium-High,High,Very Low,Low,Very Low,Low,Very Low,Low,Very Low,High,Very Low,High
190,b9acaec4-5f85-4dbe-8532-cb47ceea76c3,a24c9947-d2b6-4352-b987-84370fb6cffd,ec1f5b55-a842-4525-bf50-f14df2ca7fd0,9a3385f6-1871-4584-8639-f2b79340470f,,29288,Artisan on 2nd,601 East 2nd St,Los Angeles,CA,Los Angeles,90012,Los Angeles,Downtown CBD,1,2008,Mid-Rise,118,34.04716113,-118.2370632,143482.0,PRIMARY_USE_RESIDENTIAL,201,7.0,Very Low,Very High,Very Low,Moderate,Very Low,Moderate,Very Low,Low,Very Low,Low,Very Low,Low,Very Low,High,Very Low,High
191,e4fecf5a-bd59-4101-bb9c-a06823ebf843,87bad104-cdeb-4544-a3d3-611fa9563bbf,f8570521-2314-47b5-915d-a02e081e081e,ff9eac35-40f7-48f6-ab8b-9d7f556b9510,,29289,Prism at Park Avenue South,50 East 28th Street,New York,NY,New York,10016,New York - Manhattan,Manhattan-Gramercy,1,2014,High-Rise,269,40.74335,-73.984155,216097.0,PRIMARY_USE_FOOD_SERVICE,328,44.0,Very Low,Low,Very Low,Moderate,Very Low,Moderate,Very Low,Low,Very Low,Low,Very Low,Low,Very Low,Moderately High,Very Low,Moderately High
192,db9fe550-f342-4bb2-9f19-b104b71c8455,f96c6478-ccca-491b-b67e-1293dbe72f00,ce14d692-b331-418b-a46c-92a319e5a301,2c32d807-df3f-4730-99da-f7e38043277f,,29291,Edgemont at Bethesda Metro,4903 Edgemoor Lane,Bethesda,MD,Montgomery,20814,Washington DC,MD-Bethesda/Chevy Chase,1,1985,High-Rise,122,38.985216,-77.097952,101010.0,PRIMARY_USE_RESIDENTIAL,159,10.0,Very Low,Low,Very Low,Moderate,Very Low,Moderate,Very Low,Moderate,Very Low,Moderate,Very Low,Moderate,Very Low,Moderately High,Very Low,High
193,e3b456d2-33f2-4210-b782-1952ad9155bc,305d1476-5ffe-4c4f-8e9b-a4c6767cde7c,643d4e61-6413-4f80-a699-e004a0f9821f,0c2c5181-26a1-4293-ae02-8da89f617ec7,,29292,The Edge,4885 Edgemoor Ln,Bethesda,MD,Montgomery,20814,Washington DC,MD-Bethesda/Chevy Chase,1,2021,High-Rise,154,38.985093,-77.097276,145603.0,PRIMARY_USE_RESIDENTIAL,252,18.0,Very Low,Low,Very Low,Moderate,Very Low,Moderate,Very Low,Low,Very Low,Low,Very Low,Low,Very Low,Moderately High,Very Low,High
194,30a29ab3-179a-4850-9263-606ef039ec83,3a3c0544-9d06-4d94-b95c-8bfb366dfc9b,9fcd5b1c-b6ea-4722-b0dc-718698257fe1,9d21c1be-9643-453d-a287-4cbf3c7a199b,,29348,Ridgewood Village,12435 Heatherton Court,San Diego,CA,San Diego,92128,San Diego,I-15 Corridor,51,1997,Garden,408,32.94380049,-117.0886139,346120.0,PRIMARY_USE_RESIDENTIAL,728,2.0,Very Low,Moderately High,Medium-High,High,Medium-High,High,Low,Moderate,Low,Moderate,Low,Moderate,Very Low,Moderately High,Very Low,Moderately High
195,5a77f0bc-5b85-4ac2-8491-0ab5a6c1c845,a36623e8-3b06-4826-8ed1-d589ee2fba48,a0563616-bfd4-48e1-96b9-acce19f0f6d7,8a6f5647-a910-4fdc-989d-6804f5bfb7b5,,29373,The Terraces,639 Geary Street,San Francisco,CA,San Francisco,94109,San Francisco Bay Area,SF-Downtown,1,1975,High-Rise,117,37.78911209,-122.4190903,57213.0,PRIMARY_USE_RESIDENTIAL,117,13.0,Low-Medium,High,Very Low,Moderate,Very Low,Moderate,Very Low,Low,Very Low,Low,Very Low,Low,Very Low,Moderate,Very Low,Moderate
196,a3602464-5f70-49d7-844c-2c7747c71053,909e7181-2e06-4567-9dc2-e84f84fc9eed,596d6cd3-4545-4337-b184-32e61b00b861,c85dfbad-8f66-4e3d-9480-1f147b4e20f4,,29401,The Arches,1235 Wildwood Ave,Sunnyvale,CA,Santa Clara,94089,San Francisco Bay Area,SF-South Bay,37,1974,Garden,410,37.38958591,-121.9892959,306610.0,PRIMARY_USE_RESIDENTIAL,536,2.0,Low,Very High,Very Low,Moderate,Very Low,Moderate,Medium,Very High,Medium,Very High,Medium,Very High,Very Low,Moderately High,Very Low,High
197,fa5de700-2c67-4f1b-aa03-7b097ef3e3be,05a3798c-22e7-4dc9-b0ca-e415b7e3c224,faedda92-d9b6-4aef-b90c-75c984f5a1ac,5ba0a691-431a-4885-971a-b1feeb7977a7,,29411,The Alton,2501 Alton Parkway,Irvine,CA,Orange,92606,Orange County,North Orange,1,2016,Mid & High Rises,344,33.691595,-117.835173,272588.0,PRIMARY_USE_RESIDENTIAL,465,5.0,Very Low,High,Very Low,Moderate,Very Low,Moderate,Very Low,High,Low,Very High,Low,Very High,Very Low,Moderately High,Very Low,Moderately High
198,3ea6d345-46fe-4f29-a693-66f19d4c6f00,12fa69a4-a7bc-46c9-a7b9-759984bc42db,f6681edd-b94c-425f-aeb9-123a93539c7c,61c84d03-0c80-47fa-aee9-271b51882039,,29414,Glo,1050 Wilshire Boulevard,Los Angeles,CA,Los Angeles,90017,Los Angeles,Downtown CBD,2,2007,Mid-Rise,201,34.052019,-118.262422,203061.0,PRIMARY_USE_HEALTHCARE,345,7.0,Very Low,Very High,Very Low,Moderate,Very Low,Moderate,Very Low,Low,Very Low,Low,Very Low,Low,Very Low,High,Very Low,High
199,b210a2e4-98d8-47aa-a1f3-7b3578e56f9e,84175e15-dc76-4b3a-a5b5-95427bbf2738,49467d9f-3205-4d2e-b043-d576fecd0541,5fc6040d-e4ea-4360-b49f-122a32fa39b9,,29416,The Encore,4920 Van Nuys Boulevard,Sherman Oaks,CA,Los Angeles,91403,Los Angeles,San Fernando Valley,1,1988,Mid-Rise,174,34.15977387,-118.4487308,113790.0,PRIMARY_USE_RESIDENTIAL,213,5.0,Very Low,Very High,Low-Medium,Moderately High,Low-Medium,Moderately High,Low-Medium,High,Low-Medium,High,Low-Medium,High,Very Low,High,Very Low,High
200,18411bd0-10bd-4b26-abdf-d870a4351f3a,f049672d-3b3f-408b-b1af-dd9cfd456d72,c410fefd-b1f6-400c-aaef-abd4182160e9,d1adac8b-cf6a-4546-9f2a-831249cd967e,,29417,Azure,690 Long Bridge Street,San Francisco,CA,San Francisco,94158,San Francisco Bay Area,SF-Downtown,2,2015,High-Rise,273,37.772863,-122.392547,234825.0,PRIMARY_USE_RESIDENTIAL,382,16.0,Low-Medium,High,Very Low,Moderate,Very Low,Moderate,Low,High,Low,High,Low,High,Very Low,Moderate,Very Low,Moderate
201,f4d02454-61bf-4f77-a224-ba059ad297bd,09efb6e1-509d-4861-92c2-6bb9432a20b1,aa84e33c-4599-4cde-aebf-0b06dec8e778,a7c24471-5efe-4d6a-b953-a47383beb853,,29423,Three20,320 East Pine,Seattle,WA,King,98122,Seattle,Capital Hill/First Hill,1,2014,Mid-Rise,134,47.615238,-122.32766,82099.0,PRIMARY_USE_FOOD_SERVICE,134,8.0,Low-Medium,High,Very Low,Moderate,Very Low,Moderate,Very Low,Low,Very Low,Low,Very Low,Moderate,Very Low,Moderate,Very Low,Moderately High
202,45443abc-9b7b-4261-a5ae-cdcbe944715e,8f0d2992-e257-4f27-838d-ffc269ff88d0,b69aed26-caa9-4c4b-b433-da7ca80ae09f,aa471548-e941-42b6-8e8f-74f4346cc538,,29458,Walden Park,205 Walden Street,Cambridge,MA,Middlesex,2140,Boston,MA-Cambridge,2,1966,Mid-Rise,232,42.38673331,-71.12937828,166774.0,PRIMARY_USE_RESIDENTIAL,284,7.0,Very Low,Low,Very Low,Moderate,Very Low,Moderate,Very Low,Low,Very Low,Low,Very Low,Low,Very Low,Moderately High,Very Low,Moderately High
203,c98beb53-985c-4637-8bd3-2f73a86af3fd,462ce6a0-ce89-4f8a-989f-6ebfd4c7d07a,44ba1c59-6460-445e-8c49-10e4b6a02ea4,85538631-76f8-4dcb-8f89-f33f7ac64efd,,29573,One India Street,1 India St,Boston,MA,Suffolk,2109,Boston,City of Boston,1,1901,Mid-Rise,94,42.359001,-71.054189,77150.0,PRIMARY_USE_RETAIL,136,12.5,Very Low,Low,Very Low,Moderate,Very Low,Moderate,Low-Medium,High,Low-Medium,Very High,Medium,Very High,Very Low,Moderately High,Very Low,Moderately High
204,d6030520-8f56-4f12-beba-63b11f10b85c,a683c5de-eba9-4de0-8beb-4c7515350333,135dab22-0a61-4105-bb26-d48e058c8f23,a781b46d-82ea-4be7-a500-f5499d775a0a,,29611,Teresina,1250 Santa Cora Ave,Chula Vista,CA,San Diego,91913,San Diego,SD-South County,25,2000,Garden,440,32.630892,-116.98561,430945.0,PRIMARY_USE_RESIDENTIAL,925,3.0,Very Low,Moderately High,Low-Medium,Moderately High,Low-Medium,Moderately High,Very Low,Low,Very Low,Low,Very Low,Low,Very Low,Moderately High,Very Low,Moderately High
205,0c78b88f-d7ca-47b4-a42c-ed7e5aa20673,a1f67279-57a2-490d-bb3a-c77b443e7abe,1bd95707-8c93-42c3-aeaa-712e772facc4,4f59ff13-4200-466f-bba6-14322afedb92,,29614,La Terrazza,7800 El Camino Real,Colma,CA,San Mateo,94014,San Francisco Bay Area,SF-Peninsula,1,2005,Mid-Rise,155,37.68515,-122.46453,151309.0,PRIMARY_USE_FOOD_SERVICE,256,6.0,Low-Medium,Very High,Very Low,Moderate,Very Low,Moderate,Low-Medium,Very High,Low-Medium,Very High,Low-Medium,Very High,Very Low,Moderate,Very Low,Moderate
206,9e836d0a-e07a-4c9c-96b3-7fda808cdc43,be8375ca-95d2-4853-a541-ac059688be75,437e9166-cfe2-4448-b9cd-75c084c6b55a,d01fd383-b63c-4010-a9c6-2b57bc3951f2,,29616,The Cleo,345 S. Alexandria Ave,Los Angeles,CA,Los Angeles,90020,Los Angeles,Hollywood/Mid Wilshire,1,1989,Mid-Rise,92,34.06820152,-118.2979475,78460.0,PRIMARY_USE_RESIDENTIAL,157,6.0,Low-Medium,Very High,Very Low,Moderate,Very Low,Moderate,Very Low,Low,Very Low,Low,Very Low,Low,Very Low,High,Very Low,High
207,fd117067-e29f-421b-a66d-81f7aefed869,33c142a2-5f1e-4b52-933d-03287a7d6016,92f8d5e1-c2d9-485c-a090-e5ae043e480e,d58ea068-9d2c-42f5-906a-461ab95fb0cc,,29624,Avenue Two,1107 2nd Avenue,Redwood City,CA,San Mateo,94063,San Francisco Bay Area,SF-Peninsula,1,1972,Mid-Rise,123,37.485702,-122.200148,87678.0,PRIMARY_USE_RESIDENTIAL,142,8.0,Medium,Very High,Low,Moderately High,Low,Moderately High,Low-Medium,Very High,Low-Medium,Very High,Low-Medium,Very High,Very Low,Moderately High,Very Low,Moderately High
208,c4f9af49-a3ec-41b0-bd2f-13135b22b67f,5c9ce5c2-4359-467b-ab17-beecf663b912,83538f78-b087-4ee5-86d9-b6af0feacce7,beffecbb-cdb3-400c-a7f8-db8d37ac4cac,,29627,Riverpark,15803 Bear Creek Parkway,Redmond,WA,King,98052,Seattle,Bellevue/Redmond,3,2009,Mid-Rise,321,47.673089,-122.129796,322175.0,PRIMARY_USE_RETAIL,534,7.0,Very Low,High,Very Low,Moderate,Very Low,Moderate,Very Low,Moderate,Very Low,Moderate,Very Low,Moderate,Very Low,Moderate,Very Low,Moderate
209,63b5a808-d28f-4cc8-b86f-4db4c058c432,56e8a89c-30db-491f-ac98-f8f2289fe364,677ce591-2f9c-4224-9e11-ba4de5deae15,0f3d66de-371f-4050-9f0f-de1dea849840,,29629,Belle Fontaine,4077 Glencoe Avenue,Marina del Rey,CA,Los Angeles,90292,Los Angeles,West Los Angeles,2,2003,Mid-Rise,102,33.989666,-118.443153,98352.0,PRIMARY_USE_RESIDENTIAL,153,4.0,Very Low,Very High,Very Low,Moderate,Very Low,Moderate,Very Low,Low,Very Low,Low,Very Low,Low,Very Low,Moderately High,Very Low,Moderately High
